{ "type": "FeatureCollection",
	"features": [
		{ "type": "Feature",
		"geometry": {"type": "Point", "coordinates": [2.0, 47.0]},
		"properties": {
			"title": "Francia",
			"content_type": "Wikipedia:Artículos_buenos",
			"geo_type": "country"
			}
		},
		{ "type": "Feature",
		"geometry": {"type": "Point", "coordinates": [4.35, 50.8333]},
		"properties": {
			"title": "Unión_Europea",
			"content_type": "Wikipedia:Artículos_buenos",
			"geo_type": ""
			}
		},
		{ "type": "Feature",
		"geometry": {"type": "Point", "coordinates": [-5.85028, 43.3625]},
		"properties": {
			"title": "Oviedo",
			"content_type": "Wikipedia:Artículos_buenos",
			"geo_type": "city"
			}
		},
		{ "type": "Feature",
		"geometry": {"type": "Point", "coordinates": [21.0333, 52.2167]},
		"properties": {
			"title": "Varsovia",
			"content_type": "Wikipedia:Artículos_buenos",
			"geo_type": "city"
			}
		},
		{ "type": "Feature",
		"geometry": {"type": "Point", "coordinates": [-0.383611, 39.505]},
		"properties": {
			"title": "Valencia",
			"content_type": "Wikipedia:Artículos_buenos",
			"geo_type": ""
			}
		},
		{ "type": "Feature",
		"geometry": {"type": "Point", "coordinates": [5.56667, 50.65]},
		"properties": {
			"title": "Lieja",
			"content_type": "Wikipedia:Artículos_buenos",
			"geo_type": "city"
			}
		},
		{ "type": "Feature",
		"geometry": {"type": "Point", "coordinates": [-95.2072, 47.2181]},
		"properties": {
			"title": "Río_Misisipi",
			"content_type": "Wikipedia:Artículos_buenos",
			"geo_type": "waterbody"
			}
		},
		{ "type": "Feature",
		"geometry": {"type": "Point", "coordinates": [-60.281, -32.0477]},
		"properties": {
			"title": "Provincia_de_Entre_Ríos",
			"content_type": "Wikipedia:Artículos_buenos",
			"geo_type": ""
			}
		},
		{ "type": "Feature",
		"geometry": {"type": "Point", "coordinates": [-58.3819, -34.5997]},
		"properties": {
			"title": "Buenos_Aires",
			"content_type": "Wikipedia:Artículos_buenos",
			"geo_type": "city"
			}
		},
		{ "type": "Feature",
		"geometry": {"type": "Point", "coordinates": [-0.1275, 51.5072]},
		"properties": {
			"title": "Londres",
			"content_type": "Wikipedia:Artículos_buenos",
			"geo_type": "city"
			}
		},
		{ "type": "Feature",
		"geometry": {"type": "Point", "coordinates": [-3.8, 40.7]},
		"properties": {
			"title": "Parque_regional_de_la_Cuenca_Alta_del_Manzanares",
			"content_type": "Wikipedia:Artículos_buenos",
			"geo_type": "landmark"
			}
		},
		{ "type": "Feature",
		"geometry": {"type": "Point", "coordinates": [-8.00079, 12.6507]},
		"properties": {
			"title": "Malí",
			"content_type": "Wikipedia:Artículos_buenos",
			"geo_type": "city"
			}
		},
		{ "type": "Feature",
		"geometry": {"type": "Point", "coordinates": [20.5156, 54.7033]},
		"properties": {
			"title": "Problema_de_los_puentes_de_Königsberg",
			"content_type": "Wikipedia:Artículos_buenos",
			"geo_type": ""
			}
		},
		{ "type": "Feature",
		"geometry": {"type": "Point", "coordinates": [-89.0, 20.8333]},
		"properties": {
			"title": "Yucatán",
			"content_type": "Wikipedia:Artículos_buenos",
			"geo_type": "city"
			}
		},
		{ "type": "Feature",
		"geometry": {"type": "Point", "coordinates": [-84.3903, 33.7569]},
		"properties": {
			"title": "Atlanta",
			"content_type": "Wikipedia:Artículos_buenos",
			"geo_type": "city"
			}
		},
		{ "type": "Feature",
		"geometry": {"type": "Point", "coordinates": [2.16167, 41.3953]},
		"properties": {
			"title": "Casa_Milà",
			"content_type": "Wikipedia:Artículos_buenos",
			"geo_type": "landmark"
			}
		},
		{ "type": "Feature",
		"geometry": {"type": "Point", "coordinates": [-0.352222, 39.3317]},
		"properties": {
			"title": "Parque_natural_de_la_Albufera",
			"content_type": "Wikipedia:Artículos_buenos",
			"geo_type": "landmark"
			}
		},
		{ "type": "Feature",
		"geometry": {"type": "Point", "coordinates": [-8.54389, 42.8806]},
		"properties": {
			"title": "Catedral_de_Santiago_de_Compostela",
			"content_type": "Wikipedia:Artículos_buenos",
			"geo_type": "landmark"
			}
		},
		{ "type": "Feature",
		"geometry": {"type": "Point", "coordinates": [-4.11611, 43.3825]},
		"properties": {
			"title": "Cueva_de_Altamira",
			"content_type": "Wikipedia:Artículos_buenos",
			"geo_type": "landmark"
			}
		},
		{ "type": "Feature",
		"geometry": {"type": "Point", "coordinates": [-60.9972, -33.6958]},
		"properties": {
			"title": "Provincia_de_Buenos_Aires",
			"content_type": "Wikipedia:Artículos_buenos",
			"geo_type": ""
			}
		},
		{ "type": "Feature",
		"geometry": {"type": "Point", "coordinates": [-5.57056, 42.5983]},
		"properties": {
			"title": "Casa_Botines",
			"content_type": "Wikipedia:Artículos_buenos",
			"geo_type": "landmark"
			}
		},
		{ "type": "Feature",
		"geometry": {"type": "Point", "coordinates": [-70.75, -34.1667]},
		"properties": {
			"title": "Rancagua",
			"content_type": "Wikipedia:Artículos_buenos",
			"geo_type": "city"
			}
		},
		{ "type": "Feature",
		"geometry": {"type": "Point", "coordinates": [121.467, 31.1667]},
		"properties": {
			"title": "República_Popular_China",
			"content_type": "Wikipedia:Artículos_buenos",
			"geo_type": ""
			}
		},
		{ "type": "Feature",
		"geometry": {"type": "Point", "coordinates": [-4.02833, 39.8694]},
		"properties": {
			"title": "Toledo",
			"content_type": "Wikipedia:Artículos_buenos",
			"geo_type": ""
			}
		},
		{ "type": "Feature",
		"geometry": {"type": "Point", "coordinates": [2.15278, 41.4136]},
		"properties": {
			"title": "Parque_Güell",
			"content_type": "Wikipedia:Artículos_buenos",
			"geo_type": "landmark"
			}
		},
		{ "type": "Feature",
		"geometry": {"type": "Point", "coordinates": [2.165, 41.3917]},
		"properties": {
			"title": "Casa_Batlló",
			"content_type": "Wikipedia:Artículos_buenos",
			"geo_type": "landmark"
			}
		},
		{ "type": "Feature",
		"geometry": {"type": "Point", "coordinates": [2.17386, 41.3789]},
		"properties": {
			"title": "Palacio_Güell",
			"content_type": "Wikipedia:Artículos_buenos",
			"geo_type": "landmark"
			}
		},
		{ "type": "Feature",
		"geometry": {"type": "Point", "coordinates": [-4.55966, 37.0184]},
		"properties": {
			"title": "Antequera",
			"content_type": "Wikipedia:Artículos_buenos",
			"geo_type": "city"
			}
		},
		{ "type": "Feature",
		"geometry": {"type": "Point", "coordinates": [-4.5535, 36.5969]},
		"properties": {
			"title": "Benalmádena",
			"content_type": "Wikipedia:Artículos_buenos",
			"geo_type": "city"
			}
		},
		{ "type": "Feature",
		"geometry": {"type": "Point", "coordinates": [-5.6, 36.0167]},
		"properties": {
			"title": "Tarifa",
			"content_type": "Wikipedia:Artículos_buenos",
			"geo_type": "city"
			}
		},
		{ "type": "Feature",
		"geometry": {"type": "Point", "coordinates": [166.933, -0.5322]},
		"properties": {
			"title": "Nauru",
			"content_type": "Wikipedia:Artículos_buenos",
			"geo_type": "landmark"
			}
		},
		{ "type": "Feature",
		"geometry": {"type": "Point", "coordinates": [-4.625, 36.5417]},
		"properties": {
			"title": "Fuengirola",
			"content_type": "Wikipedia:Artículos_buenos",
			"geo_type": "city"
			}
		},
		{ "type": "Feature",
		"geometry": {"type": "Point", "coordinates": [-4.63722, 36.5956]},
		"properties": {
			"title": "Mijas",
			"content_type": "Wikipedia:Artículos_buenos",
			"geo_type": "city"
			}
		},
		{ "type": "Feature",
		"geometry": {"type": "Point", "coordinates": [22.5192, 40.76]},
		"properties": {
			"title": "Pela_(Grecia)",
			"content_type": "Wikipedia:Artículos_buenos",
			"geo_type": "city"
			}
		},
		{ "type": "Feature",
		"geometry": {"type": "Point", "coordinates": [46.1031, 30.9625]},
		"properties": {
			"title": "Ur",
			"content_type": "Wikipedia:Artículos_buenos",
			"geo_type": ""
			}
		},
		{ "type": "Feature",
		"geometry": {"type": "Point", "coordinates": [37.6178, 55.7558]},
		"properties": {
			"title": "Moscú",
			"content_type": "Wikipedia:Artículos_buenos",
			"geo_type": "city"
			}
		},
		{ "type": "Feature",
		"geometry": {"type": "Point", "coordinates": [14.4214, 50.0886]},
		"properties": {
			"title": "Praga",
			"content_type": "Wikipedia:Artículos_buenos",
			"geo_type": "city"
			}
		},
		{ "type": "Feature",
		"geometry": {"type": "Point", "coordinates": [-0.466667, 38.1667]},
		"properties": {
			"title": "Isla_de_Tabarca",
			"content_type": "Wikipedia:Artículos_buenos",
			"geo_type": "isle"
			}
		},
		{ "type": "Feature",
		"geometry": {"type": "Point", "coordinates": [31.1, 30.1667]},
		"properties": {
			"title": "Nilo",
			"content_type": "Wikipedia:Artículos_buenos",
			"geo_type": "waterbody"
			}
		},
		{ "type": "Feature",
		"geometry": {"type": "Point", "coordinates": [-0.0991667, 51.5078]},
		"properties": {
			"title": "Tate_Modern",
			"content_type": "Wikipedia:Artículos_buenos",
			"geo_type": "landmark"
			}
		},
		{ "type": "Feature",
		"geometry": {"type": "Point", "coordinates": [2.64972, 39.5667]},
		"properties": {
			"title": "Palma_de_Mallorca",
			"content_type": "Wikipedia:Artículos_buenos",
			"geo_type": "city"
			}
		},
		{ "type": "Feature",
		"geometry": {"type": "Point", "coordinates": [101.7, 3.15972]},
		"properties": {
			"title": "Kuala_Lumpur",
			"content_type": "Wikipedia:Artículos_buenos",
			"geo_type": "city"
			}
		},
		{ "type": "Feature",
		"geometry": {"type": "Point", "coordinates": [-177.35, 28.2]},
		"properties": {
			"title": "Batalla_de_Midway",
			"content_type": "Wikipedia:Artículos_buenos",
			"geo_type": "event"
			}
		},
		{ "type": "Feature",
		"geometry": {"type": "Point", "coordinates": [-85.0, 37.5]},
		"properties": {
			"title": "Kentucky",
			"content_type": "Wikipedia:Artículos_buenos",
			"geo_type": "city"
			}
		},
		{ "type": "Feature",
		"geometry": {"type": "Point", "coordinates": [-80.0, 35.5]},
		"properties": {
			"title": "Carolina_del_Norte",
			"content_type": "Wikipedia:Artículos_buenos",
			"geo_type": "city"
			}
		},
		{ "type": "Feature",
		"geometry": {"type": "Point", "coordinates": [-111.5, 39.5]},
		"properties": {
			"title": "Utah",
			"content_type": "Wikipedia:Artículos_buenos",
			"geo_type": "city"
			}
		},
		{ "type": "Feature",
		"geometry": {"type": "Point", "coordinates": [14.5167, 46.05]},
		"properties": {
			"title": "Liubliana",
			"content_type": "Wikipedia:Artículos_buenos",
			"geo_type": "city"
			}
		},
		{ "type": "Feature",
		"geometry": {"type": "Point", "coordinates": [20.4667, 44.8167]},
		"properties": {
			"title": "Belgrado",
			"content_type": "Wikipedia:Artículos_buenos",
			"geo_type": "city"
			}
		},
		{ "type": "Feature",
		"geometry": {"type": "Point", "coordinates": [-74.0444, 40.6892]},
		"properties": {
			"title": "Estatua_de_la_Libertad",
			"content_type": "Wikipedia:Artículos_buenos",
			"geo_type": "landmark"
			}
		},
		{ "type": "Feature",
		"geometry": {"type": "Point", "coordinates": [2.31361, 48.8636]},
		"properties": {
			"title": "Puente_Alejandro_III",
			"content_type": "Wikipedia:Artículos_buenos",
			"geo_type": "landmark"
			}
		},
		{ "type": "Feature",
		"geometry": {"type": "Point", "coordinates": [-6.11667, 36.7]},
		"properties": {
			"title": "Jerez_de_la_Frontera",
			"content_type": "Wikipedia:Artículos_buenos",
			"geo_type": "city"
			}
		},
		{ "type": "Feature",
		"geometry": {"type": "Point", "coordinates": [5.37722, 43.2975]},
		"properties": {
			"title": "Marsella",
			"content_type": "Wikipedia:Artículos_buenos",
			"geo_type": "city"
			}
		},
		{ "type": "Feature",
		"geometry": {"type": "Point", "coordinates": [26.2389, 39.9575]},
		"properties": {
			"title": "Troya",
			"content_type": "Wikipedia:Artículos_buenos",
			"geo_type": "landmark"
			}
		},
		{ "type": "Feature",
		"geometry": {"type": "Point", "coordinates": [0.657778, 42.6322]},
		"properties": {
			"title": "Pico_Aneto",
			"content_type": "Wikipedia:Artículos_buenos",
			"geo_type": "mountain"
			}
		},
		{ "type": "Feature",
		"geometry": {"type": "Point", "coordinates": [88.3378, 22.5411]},
		"properties": {
			"title": "Calcuta",
			"content_type": "Wikipedia:Artículos_buenos",
			"geo_type": "city"
			}
		},
		{ "type": "Feature",
		"geometry": {"type": "Point", "coordinates": [-75.7, 45.4167]},
		"properties": {
			"title": "Ottawa",
			"content_type": "Wikipedia:Artículos_buenos",
			"geo_type": "city"
			}
		},
		{ "type": "Feature",
		"geometry": {"type": "Point", "coordinates": [-98.8636, 20.4783]},
		"properties": {
			"title": "Estado_de_Hidalgo",
			"content_type": "Wikipedia:Artículos_buenos",
			"geo_type": "city"
			}
		},
		{ "type": "Feature",
		"geometry": {"type": "Point", "coordinates": [-3.44833, 43.3967]},
		"properties": {
			"title": "Colindres",
			"content_type": "Wikipedia:Artículos_buenos",
			"geo_type": "city"
			}
		},
		{ "type": "Feature",
		"geometry": {"type": "Point", "coordinates": [174.783, -36.85]},
		"properties": {
			"title": "Auckland",
			"content_type": "Wikipedia:Artículos_buenos",
			"geo_type": "city"
			}
		},
		{ "type": "Feature",
		"geometry": {"type": "Point", "coordinates": [-57.95, -34.9333]},
		"properties": {
			"title": "La_Plata",
			"content_type": "Wikipedia:Artículos_buenos",
			"geo_type": "city"
			}
		},
		{ "type": "Feature",
		"geometry": {"type": "Point", "coordinates": [149.142, -35.3028]},
		"properties": {
			"title": "Canberra",
			"content_type": "Wikipedia:Artículos_buenos",
			"geo_type": "city"
			}
		},
		{ "type": "Feature",
		"geometry": {"type": "Point", "coordinates": [-2.94583, 43.2722]},
		"properties": {
			"title": "Deusto",
			"content_type": "Wikipedia:Artículos_buenos",
			"geo_type": "city"
			}
		},
		{ "type": "Feature",
		"geometry": {"type": "Point", "coordinates": [-99.3164, 19.3294]},
		"properties": {
			"title": "Batalla_del_Monte_de_las_Cruces",
			"content_type": "Wikipedia:Artículos_buenos",
			"geo_type": "event"
			}
		},
		{ "type": "Feature",
		"geometry": {"type": "Point", "coordinates": [-6.1, 40.0333]},
		"properties": {
			"title": "Plasencia",
			"content_type": "Wikipedia:Artículos_buenos",
			"geo_type": ""
			}
		},
		{ "type": "Feature",
		"geometry": {"type": "Point", "coordinates": [-3.71417, 40.4183]},
		"properties": {
			"title": "Palacio_Real_de_Madrid",
			"content_type": "Wikipedia:Artículos_buenos",
			"geo_type": "landmark"
			}
		},
		{ "type": "Feature",
		"geometry": {"type": "Point", "coordinates": [151.215, -33.8569]},
		"properties": {
			"title": "Ópera_de_Sídney",
			"content_type": "Wikipedia:Artículos_buenos",
			"geo_type": "landmark"
			}
		},
		{ "type": "Feature",
		"geometry": {"type": "Point", "coordinates": [-1.17167, 42.6353]},
		"properties": {
			"title": "Monasterio_de_Leyre",
			"content_type": "Wikipedia:Artículos_buenos",
			"geo_type": "landmark"
			}
		},
		{ "type": "Feature",
		"geometry": {"type": "Point", "coordinates": [-7.0, 53.0]},
		"properties": {
			"title": "Irlanda",
			"content_type": "Wikipedia:Artículos_buenos",
			"geo_type": ""
			}
		},
		{ "type": "Feature",
		"geometry": {"type": "Point", "coordinates": [-57.5167, -38.0167]},
		"properties": {
			"title": "Mar_del_Plata",
			"content_type": "Wikipedia:Artículos_buenos",
			"geo_type": ""
			}
		},
		{ "type": "Feature",
		"geometry": {"type": "Point", "coordinates": [-6.5, 37.0]},
		"properties": {
			"title": "Parque_nacional_y_natural_de_Doñana",
			"content_type": "Wikipedia:Artículos_buenos",
			"geo_type": ""
			}
		},
		{ "type": "Feature",
		"geometry": {"type": "Point", "coordinates": [-65.1, -43.3]},
		"properties": {
			"title": "Rawson",
			"content_type": "Wikipedia:Artículos_buenos",
			"geo_type": "city"
			}
		},
		{ "type": "Feature",
		"geometry": {"type": "Point", "coordinates": [-64.5, -30.5]},
		"properties": {
			"title": "San_Fernando_del_Valle_de_Catamarca",
			"content_type": "Wikipedia:Artículos_buenos",
			"geo_type": ""
			}
		},
		{ "type": "Feature",
		"geometry": {"type": "Point", "coordinates": [-3.19083, 39.9767]},
		"properties": {
			"title": "Santa_Cruz_de_la_Zarza",
			"content_type": "Wikipedia:Artículos_buenos",
			"geo_type": "city"
			}
		},
		{ "type": "Feature",
		"geometry": {"type": "Point", "coordinates": [-5.94444, 42.7736]},
		"properties": {
			"title": "Riello_(León)",
			"content_type": "Wikipedia:Artículos_buenos",
			"geo_type": "city"
			}
		},
		{ "type": "Feature",
		"geometry": {"type": "Point", "coordinates": [-5.23333, 40.15]},
		"properties": {
			"title": "Candeleda",
			"content_type": "Wikipedia:Artículos_buenos",
			"geo_type": "city"
			}
		},
		{ "type": "Feature",
		"geometry": {"type": "Point", "coordinates": [-4.33566, 43.0722]},
		"properties": {
			"title": "Río_Saja",
			"content_type": "Wikipedia:Artículos_buenos",
			"geo_type": "river"
			}
		},
		{ "type": "Feature",
		"geometry": {"type": "Point", "coordinates": [16.7667, 49.1333]},
		"properties": {
			"title": "Batalla_de_Austerlitz",
			"content_type": "Wikipedia:Artículos_buenos",
			"geo_type": "event"
			}
		},
		{ "type": "Feature",
		"geometry": {"type": "Point", "coordinates": [-81.6697, 41.4822]},
		"properties": {
			"title": "Cleveland",
			"content_type": "Wikipedia:Artículos_buenos",
			"geo_type": "city"
			}
		},
		{ "type": "Feature",
		"geometry": {"type": "Point", "coordinates": [-74.9714, -12.785]},
		"properties": {
			"title": "Huancavelica",
			"content_type": "Wikipedia:Artículos_buenos",
			"geo_type": "city"
			}
		},
		{ "type": "Feature",
		"geometry": {"type": "Point", "coordinates": [-113.501, 53.5472]},
		"properties": {
			"title": "Edmonton",
			"content_type": "Wikipedia:Artículos_buenos",
			"geo_type": "city"
			}
		},
		{ "type": "Feature",
		"geometry": {"type": "Point", "coordinates": [8.13056, 52.4064]},
		"properties": {
			"title": "Batalla_del_bosque_de_Teutoburgo",
			"content_type": "Wikipedia:Artículos_buenos",
			"geo_type": ""
			}
		},
		{ "type": "Feature",
		"geometry": {"type": "Point", "coordinates": [-3.72417, 40.4225]},
		"properties": {
			"title": "Río_Manzanares",
			"content_type": "Wikipedia:Artículos_buenos",
			"geo_type": "waterbody"
			}
		},
		{ "type": "Feature",
		"geometry": {"type": "Point", "coordinates": [-75.3236, 4.8925]},
		"properties": {
			"title": "Nevado_del_Ruiz",
			"content_type": "Wikipedia:Artículos_buenos",
			"geo_type": "mountain"
			}
		},
		{ "type": "Feature",
		"geometry": {"type": "Point", "coordinates": [-0.369136, 39.4996]},
		"properties": {
			"title": "Academia_Valenciana_de_la_Lengua",
			"content_type": "Wikipedia:Artículos_buenos",
			"geo_type": "landmark"
			}
		},
		{ "type": "Feature",
		"geometry": {"type": "Point", "coordinates": [-4.90833, 41.3089]},
		"properties": {
			"title": "Castillo_de_La_Mota",
			"content_type": "Wikipedia:Artículos_buenos",
			"geo_type": "landmark"
			}
		},
		{ "type": "Feature",
		"geometry": {"type": "Point", "coordinates": [-2.99167, 43.2972]},
		"properties": {
			"title": "Baracaldo",
			"content_type": "Wikipedia:Artículos_buenos",
			"geo_type": "city"
			}
		},
		{ "type": "Feature",
		"geometry": {"type": "Point", "coordinates": [-4.00278, 38.9528]},
		"properties": {
			"title": "Batalla_de_Alarcos",
			"content_type": "Wikipedia:Artículos_buenos",
			"geo_type": ""
			}
		},
		{ "type": "Feature",
		"geometry": {"type": "Point", "coordinates": [-5.78056, 37.1794]},
		"properties": {
			"title": "Utrera",
			"content_type": "Wikipedia:Artículos_buenos",
			"geo_type": "landmark"
			}
		},
		{ "type": "Feature",
		"geometry": {"type": "Point", "coordinates": [-60.6746, -32.914]},
		"properties": {
			"title": "Estadio_Gigante_de_Arroyito",
			"content_type": "Wikipedia:Artículos_buenos",
			"geo_type": "landmark"
			}
		},
		{ "type": "Feature",
		"geometry": {"type": "Point", "coordinates": [116.391, 39.9147]},
		"properties": {
			"title": "Ciudad_Prohibida",
			"content_type": "Wikipedia:Artículos_buenos",
			"geo_type": "landmark"
			}
		},
		{ "type": "Feature",
		"geometry": {"type": "Point", "coordinates": [-3.4575, 43.4414]},
		"properties": {
			"title": "Santoña",
			"content_type": "Wikipedia:Artículos_buenos",
			"geo_type": "city"
			}
		},
		{ "type": "Feature",
		"geometry": {"type": "Point", "coordinates": [153.028, -27.4678]},
		"properties": {
			"title": "Brisbane",
			"content_type": "Wikipedia:Artículos_buenos",
			"geo_type": "city"
			}
		},
		{ "type": "Feature",
		"geometry": {"type": "Point", "coordinates": [-74.0093, 5.01876]},
		"properties": {
			"title": "Catedral_de_Sal",
			"content_type": "Wikipedia:Artículos_buenos",
			"geo_type": "landmark"
			}
		},
		{ "type": "Feature",
		"geometry": {"type": "Point", "coordinates": [-75.6117, 1.61417]},
		"properties": {
			"title": "Florencia_(Caquetá)",
			"content_type": "Wikipedia:Artículos_buenos",
			"geo_type": "city"
			}
		},
		{ "type": "Feature",
		"geometry": {"type": "Point", "coordinates": [-97.15, 49.8833]},
		"properties": {
			"title": "Winnipeg",
			"content_type": "Wikipedia:Artículos_buenos",
			"geo_type": "city"
			}
		},
		{ "type": "Feature",
		"geometry": {"type": "Point", "coordinates": [-2.22083, 52.1888]},
		"properties": {
			"title": "Batalla_de_Worcester",
			"content_type": "Wikipedia:Artículos_buenos",
			"geo_type": "event"
			}
		},
		{ "type": "Feature",
		"geometry": {"type": "Point", "coordinates": [-4.49963, 36.6245]},
		"properties": {
			"title": "Torremolinos",
			"content_type": "Wikipedia:Artículos_buenos",
			"geo_type": "city"
			}
		},
		{ "type": "Feature",
		"geometry": {"type": "Point", "coordinates": [60.0, 45.0]},
		"properties": {
			"title": "Mar_de_Aral",
			"content_type": "Wikipedia:Artículos_buenos",
			"geo_type": "waterbody"
			}
		},
		{ "type": "Feature",
		"geometry": {"type": "Point", "coordinates": [9.44917, 36.2989]},
		"properties": {
			"title": "Batalla_de_Zama",
			"content_type": "Wikipedia:Artículos_buenos",
			"geo_type": "event"
			}
		},
		{ "type": "Feature",
		"geometry": {"type": "Point", "coordinates": [-71.6667, -40.7833]},
		"properties": {
			"title": "Villa_La_Angostura",
			"content_type": "Wikipedia:Artículos_buenos",
			"geo_type": "city"
			}
		},
		{ "type": "Feature",
		"geometry": {"type": "Point", "coordinates": [-3.18, 51.48]},
		"properties": {
			"title": "Cardiff",
			"content_type": "Wikipedia:Artículos_buenos",
			"geo_type": "city"
			}
		},
		{ "type": "Feature",
		"geometry": {"type": "Point", "coordinates": [-2.43333, 50.7167]},
		"properties": {
			"title": "Dorset",
			"content_type": "Wikipedia:Artículos_buenos",
			"geo_type": ""
			}
		},
		{ "type": "Feature",
		"geometry": {"type": "Point", "coordinates": [2.69742, 50.0155]},
		"properties": {
			"title": "Batalla_del_Somme",
			"content_type": "Wikipedia:Artículos_buenos",
			"geo_type": "event"
			}
		},
		{ "type": "Feature",
		"geometry": {"type": "Point", "coordinates": [-77.1492, -12.0628]},
		"properties": {
			"title": "Fortaleza_del_Real_Felipe",
			"content_type": "Wikipedia:Artículos_buenos",
			"geo_type": "landmark"
			}
		},
		{ "type": "Feature",
		"geometry": {"type": "Point", "coordinates": [168.3, -17.75]},
		"properties": {
			"title": "Port_Vila",
			"content_type": "Wikipedia:Artículos_buenos",
			"geo_type": "city"
			}
		},
		{ "type": "Feature",
		"geometry": {"type": "Point", "coordinates": [-58.3722, -34.6084]},
		"properties": {
			"title": "Pirámide_de_Mayo",
			"content_type": "Wikipedia:Artículos_buenos",
			"geo_type": "landmark"
			}
		},
		{ "type": "Feature",
		"geometry": {"type": "Point", "coordinates": [-4.27938, 36.7162]},
		"properties": {
			"title": "Rincón_de_la_Victoria",
			"content_type": "Wikipedia:Artículos_buenos",
			"geo_type": "city"
			}
		},
		{ "type": "Feature",
		"geometry": {"type": "Point", "coordinates": [-3.43556, 43.0917]},
		"properties": {
			"title": "Ferrocarril_de_La_Robla",
			"content_type": "Wikipedia:Artículos_buenos",
			"geo_type": ""
			}
		},
		{ "type": "Feature",
		"geometry": {"type": "Point", "coordinates": [4.0375, 46.9231]},
		"properties": {
			"title": "Bibracte",
			"content_type": "Wikipedia:Artículos_buenos",
			"geo_type": ""
			}
		},
		{ "type": "Feature",
		"geometry": {"type": "Point", "coordinates": [4.50028, 47.5372]},
		"properties": {
			"title": "Batalla_de_Alesia",
			"content_type": "Wikipedia:Artículos_buenos",
			"geo_type": "event"
			}
		},
		{ "type": "Feature",
		"geometry": {"type": "Point", "coordinates": [-5.37778, 43.0469]},
		"properties": {
			"title": "Estación_de_esquí_de_San_Isidro",
			"content_type": "Wikipedia:Artículos_buenos",
			"geo_type": "landmark"
			}
		},
		{ "type": "Feature",
		"geometry": {"type": "Point", "coordinates": [11.6344, 52.1247]},
		"properties": {
			"title": "Catedral_de_Magdeburgo",
			"content_type": "Wikipedia:Artículos_buenos",
			"geo_type": "landmark"
			}
		},
		{ "type": "Feature",
		"geometry": {"type": "Point", "coordinates": [167.683, 8.75257]},
		"properties": {
			"title": "Prinz_Eugen_(1940)",
			"content_type": "Wikipedia:Artículos_buenos",
			"geo_type": "landmark"
			}
		},
		{ "type": "Feature",
		"geometry": {"type": "Point", "coordinates": [-6.27472, 36.4972]},
		"properties": {
			"title": "Playa_de_la_Victoria",
			"content_type": "Wikipedia:Artículos_buenos",
			"geo_type": "landmark"
			}
		},
		{ "type": "Feature",
		"geometry": {"type": "Point", "coordinates": [-0.437778, 39.1897]},
		"properties": {
			"title": "Algemesí",
			"content_type": "Wikipedia:Artículos_buenos",
			"geo_type": "city"
			}
		},
		{ "type": "Feature",
		"geometry": {"type": "Point", "coordinates": [10.5927, 59.7009]},
		"properties": {
			"title": "Blücher_(1939)",
			"content_type": "Wikipedia:Artículos_buenos",
			"geo_type": ""
			}
		},
		{ "type": "Feature",
		"geometry": {"type": "Point", "coordinates": [-59.1347, -37.3189]},
		"properties": {
			"title": "Tandil",
			"content_type": "Wikipedia:Artículos_buenos",
			"geo_type": ""
			}
		},
		{ "type": "Feature",
		"geometry": {"type": "Point", "coordinates": [-74.1317, -13.0425]},
		"properties": {
			"title": "Batalla_de_Ayacucho",
			"content_type": "Wikipedia:Artículos_buenos",
			"geo_type": "event"
			}
		},
		{ "type": "Feature",
		"geometry": {"type": "Point", "coordinates": [-67.2833, 10.4167]},
		"properties": {
			"title": "Colonia_Tovar",
			"content_type": "Wikipedia:Artículos_buenos",
			"geo_type": "city"
			}
		},
		{ "type": "Feature",
		"geometry": {"type": "Point", "coordinates": [-6.35, 40.0833]},
		"properties": {
			"title": "Montehermoso",
			"content_type": "Wikipedia:Artículos_buenos",
			"geo_type": ""
			}
		},
		{ "type": "Feature",
		"geometry": {"type": "Point", "coordinates": [4.97472, 52.3186]},
		"properties": {
			"title": "Vuelo_1862_de_El_Al",
			"content_type": "Wikipedia:Artículos_buenos",
			"geo_type": "event"
			}
		},
		{ "type": "Feature",
		"geometry": {"type": "Point", "coordinates": [1.32667, 43.4611]},
		"properties": {
			"title": "Batalla_de_Muret",
			"content_type": "Wikipedia:Artículos_buenos",
			"geo_type": "event"
			}
		},
		{ "type": "Feature",
		"geometry": {"type": "Point", "coordinates": [-6.06333, 42.4589]},
		"properties": {
			"title": "Asturica_Augusta",
			"content_type": "Wikipedia:Artículos_buenos",
			"geo_type": "city"
			}
		},
		{ "type": "Feature",
		"geometry": {"type": "Point", "coordinates": [-78.5273, -0.219089]},
		"properties": {
			"title": "Batalla_de_Pichincha",
			"content_type": "Wikipedia:Artículos_buenos",
			"geo_type": "event"
			}
		},
		{ "type": "Feature",
		"geometry": {"type": "Point", "coordinates": [-1.47, 42.1908]},
		"properties": {
			"title": "Bardenas_Reales",
			"content_type": "Wikipedia:Artículos_buenos",
			"geo_type": "landmark"
			}
		},
		{ "type": "Feature",
		"geometry": {"type": "Point", "coordinates": [-98.7361, 20.1225]},
		"properties": {
			"title": "Pachuca_de_Soto",
			"content_type": "Wikipedia:Artículos_buenos",
			"geo_type": "city"
			}
		},
		{ "type": "Feature",
		"geometry": {"type": "Point", "coordinates": [-4.31788, 41.4031]},
		"properties": {
			"title": "Iglesia_de_San_Andrés_(Cuéllar)",
			"content_type": "Wikipedia:Artículos_buenos",
			"geo_type": "landmark"
			}
		},
		{ "type": "Feature",
		"geometry": {"type": "Point", "coordinates": [-4.31413, 41.4017]},
		"properties": {
			"title": "Palacio_de_Pedro_I_el_Cruel_(Cuéllar)",
			"content_type": "Wikipedia:Artículos_buenos",
			"geo_type": "landmark"
			}
		},
		{ "type": "Feature",
		"geometry": {"type": "Point", "coordinates": [-0.124167, 51.4994]},
		"properties": {
			"title": "Palacio_de_Westminster",
			"content_type": "Wikipedia:Artículos_buenos",
			"geo_type": "landmark"
			}
		},
		{ "type": "Feature",
		"geometry": {"type": "Point", "coordinates": [106.687, 10.7752]},
		"properties": {
			"title": "Thích_Quảng_Đức",
			"content_type": "Wikipedia:Artículos_buenos",
			"geo_type": ""
			}
		},
		{ "type": "Feature",
		"geometry": {"type": "Point", "coordinates": [1.79306, 42.3892]},
		"properties": {
			"title": "Baja_Cerdaña",
			"content_type": "Wikipedia:Artículos_buenos",
			"geo_type": "city"
			}
		},
		{ "type": "Feature",
		"geometry": {"type": "Point", "coordinates": [28.953, 41.014]},
		"properties": {
			"title": "Iglesia_de_San_Polieucto",
			"content_type": "Wikipedia:Artículos_buenos",
			"geo_type": ""
			}
		},
		{ "type": "Feature",
		"geometry": {"type": "Point", "coordinates": [-4.6661, 51.1772]},
		"properties": {
			"title": "Lundy",
			"content_type": "Wikipedia:Artículos_buenos",
			"geo_type": "isle"
			}
		},
		{ "type": "Feature",
		"geometry": {"type": "Point", "coordinates": [-2.28278, 43.1744]},
		"properties": {
			"title": "Santuario_de_Loyola",
			"content_type": "Wikipedia:Artículos_buenos",
			"geo_type": "airport"
			}
		},
		{ "type": "Feature",
		"geometry": {"type": "Point", "coordinates": [-4.84611, 42.8261]},
		"properties": {
			"title": "Velilla_del_Río_Carrión",
			"content_type": "Wikipedia:Artículos_buenos",
			"geo_type": "city"
			}
		},
		{ "type": "Feature",
		"geometry": {"type": "Point", "coordinates": [-73.9661, 40.7825]},
		"properties": {
			"title": "Central_Park",
			"content_type": "Wikipedia:Artículos_buenos",
			"geo_type": "forrest"
			}
		},
		{ "type": "Feature",
		"geometry": {"type": "Point", "coordinates": [-2.39858, 42.9789]},
		"properties": {
			"title": "Santuario_de_Aránzazu",
			"content_type": "Wikipedia:Artículos_buenos",
			"geo_type": ""
			}
		},
		{ "type": "Feature",
		"geometry": {"type": "Point", "coordinates": [8.5481, 47.3764]},
		"properties": {
			"title": "Escuela_Politécnica_Federal_de_Zúrich",
			"content_type": "Wikipedia:Artículos_buenos",
			"geo_type": "landmark"
			}
		},
		{ "type": "Feature",
		"geometry": {"type": "Point", "coordinates": [-3.95, 40.85]},
		"properties": {
			"title": "Peñalara",
			"content_type": "Wikipedia:Artículos_buenos",
			"geo_type": "mountain"
			}
		},
		{ "type": "Feature",
		"geometry": {"type": "Point", "coordinates": [-3.96803, 40.7675]},
		"properties": {
			"title": "La_Maliciosa",
			"content_type": "Wikipedia:Artículos_buenos",
			"geo_type": "mountain"
			}
		},
		{ "type": "Feature",
		"geometry": {"type": "Point", "coordinates": [-3.73115, 40.4399]},
		"properties": {
			"title": "Escuela_Técnica_Superior_de_Arquitectura_de_Madrid",
			"content_type": "Wikipedia:Artículos_buenos",
			"geo_type": "building"
			}
		},
		{ "type": "Feature",
		"geometry": {"type": "Point", "coordinates": [2.15444, 41.4183]},
		"properties": {
			"title": "El_Carmelo",
			"content_type": "Wikipedia:Artículos_buenos",
			"geo_type": "city"
			}
		},
		{ "type": "Feature",
		"geometry": {"type": "Point", "coordinates": [-3.465, 41.1842]},
		"properties": {
			"title": "Sierra_de_Ayllón",
			"content_type": "Wikipedia:Artículos_buenos",
			"geo_type": "mountain"
			}
		},
		{ "type": "Feature",
		"geometry": {"type": "Point", "coordinates": [44.525, 33.2083]},
		"properties": {
			"title": "Operación_Ópera",
			"content_type": "Wikipedia:Artículos_buenos",
			"geo_type": "event"
			}
		},
		{ "type": "Feature",
		"geometry": {"type": "Point", "coordinates": [28.6833, 72.2667]},
		"properties": {
			"title": "Scharnhorst_(1939)",
			"content_type": "Wikipedia:Artículos_buenos",
			"geo_type": ""
			}
		},
		{ "type": "Feature",
		"geometry": {"type": "Point", "coordinates": [128.0, 26.5]},
		"properties": {
			"title": "Batalla_de_Okinawa",
			"content_type": "Wikipedia:Artículos_buenos",
			"geo_type": "event"
			}
		},
		{ "type": "Feature",
		"geometry": {"type": "Point", "coordinates": [-5.05111, 39.1686]},
		"properties": {
			"title": "Herrera_del_Duque",
			"content_type": "Wikipedia:Artículos_buenos",
			"geo_type": "city"
			}
		},
		{ "type": "Feature",
		"geometry": {"type": "Point", "coordinates": [-4.9184, 36.9833]},
		"properties": {
			"title": "Teba",
			"content_type": "Wikipedia:Artículos_buenos",
			"geo_type": "city"
			}
		},
		{ "type": "Feature",
		"geometry": {"type": "Point", "coordinates": [-4.16926, 39.8821]},
		"properties": {
			"title": "Río_Guadarrama",
			"content_type": "Wikipedia:Artículos_buenos",
			"geo_type": "waterbody"
			}
		},
		{ "type": "Feature",
		"geometry": {"type": "Point", "coordinates": [-6.15778, 37.37]},
		"properties": {
			"title": "Umbrete",
			"content_type": "Wikipedia:Artículos_buenos",
			"geo_type": "city"
			}
		},
		{ "type": "Feature",
		"geometry": {"type": "Point", "coordinates": [-2.46583, 50.6128]},
		"properties": {
			"title": "Weymouth",
			"content_type": "Wikipedia:Artículos_buenos",
			"geo_type": ""
			}
		},
		{ "type": "Feature",
		"geometry": {"type": "Point", "coordinates": [-3.72, 40.55]},
		"properties": {
			"title": "Monte_de_El_Pardo",
			"content_type": "Wikipedia:Artículos_buenos",
			"geo_type": "landmark"
			}
		},
		{ "type": "Feature",
		"geometry": {"type": "Point", "coordinates": [-3.93333, 40.6333]},
		"properties": {
			"title": "Sierra_de_Hoyo_de_Manzanares",
			"content_type": "Wikipedia:Artículos_buenos",
			"geo_type": "mountain"
			}
		},
		{ "type": "Feature",
		"geometry": {"type": "Point", "coordinates": [-2.96083, 53.4308]},
		"properties": {
			"title": "Anfield",
			"content_type": "Wikipedia:Artículos_buenos",
			"geo_type": "landmark"
			}
		},
		{ "type": "Feature",
		"geometry": {"type": "Point", "coordinates": [-2.20028, 53.4831]},
		"properties": {
			"title": "Estadio_Ciudad_de_Mánchester",
			"content_type": "Wikipedia:Artículos_buenos",
			"geo_type": "landmark"
			}
		},
		{ "type": "Feature",
		"geometry": {"type": "Point", "coordinates": [-68.3542, -52.3336]},
		"properties": {
			"title": "Ruta_Nacional_40_(Argentina)",
			"content_type": "Wikipedia:Artículos_buenos",
			"geo_type": ""
			}
		},
		{ "type": "Feature",
		"geometry": {"type": "Point", "coordinates": [23.5667, 37.9514]},
		"properties": {
			"title": "Batalla_de_Salamina",
			"content_type": "Wikipedia:Artículos_buenos",
			"geo_type": "event"
			}
		},
		{ "type": "Feature",
		"geometry": {"type": "Point", "coordinates": [-89.2333, 13.6667]},
		"properties": {
			"title": "Señorío_de_Cuzcatlán",
			"content_type": "Wikipedia:Artículos_buenos",
			"geo_type": "country"
			}
		},
		{ "type": "Feature",
		"geometry": {"type": "Point", "coordinates": [-73.4333, -39.8667]},
		"properties": {
			"title": "Toma_de_Valdivia",
			"content_type": "Wikipedia:Artículos_buenos",
			"geo_type": "event"
			}
		},
		{ "type": "Feature",
		"geometry": {"type": "Point", "coordinates": [-70.9167, -34.4667]},
		"properties": {
			"title": "Pelequén",
			"content_type": "Wikipedia:Artículos_buenos",
			"geo_type": "city"
			}
		},
		{ "type": "Feature",
		"geometry": {"type": "Point", "coordinates": [-5.64083, 36.0311]},
		"properties": {
			"title": "Parque_natural_del_Estrecho",
			"content_type": "Wikipedia:Artículos_buenos",
			"geo_type": "landmark"
			}
		},
		{ "type": "Feature",
		"geometry": {"type": "Point", "coordinates": [-98.9442, 20.2681]},
		"properties": {
			"title": "Actopan_(Hidalgo)",
			"content_type": "Wikipedia:Artículos_buenos",
			"geo_type": "city"
			}
		},
		{ "type": "Feature",
		"geometry": {"type": "Point", "coordinates": [-70.0167, -32.8]},
		"properties": {
			"title": "Cristo_Redentor_de_los_Andes",
			"content_type": "Wikipedia:Artículos_buenos",
			"geo_type": ""
			}
		},
		{ "type": "Feature",
		"geometry": {"type": "Point", "coordinates": [125.731, 39.0364]},
		"properties": {
			"title": "Hotel_Ryugyong",
			"content_type": "Wikipedia:Artículos_buenos",
			"geo_type": "landmark"
			}
		},
		{ "type": "Feature",
		"geometry": {"type": "Point", "coordinates": [-116.826, 36.2419]},
		"properties": {
			"title": "Parque_nacional_del_Valle_de_la_Muerte",
			"content_type": "Wikipedia:Artículos_buenos",
			"geo_type": "landmark"
			}
		},
		{ "type": "Feature",
		"geometry": {"type": "Point", "coordinates": [11.56, 45.5315]},
		"properties": {
			"title": "Villa_Capra",
			"content_type": "Wikipedia:Artículos_buenos",
			"geo_type": "landmark"
			}
		},
		{ "type": "Feature",
		"geometry": {"type": "Point", "coordinates": [-4.85722, 42.2628]},
		"properties": {
			"title": "San_Román_de_la_Cuba",
			"content_type": "Wikipedia:Artículos_buenos",
			"geo_type": "city"
			}
		},
		{ "type": "Feature",
		"geometry": {"type": "Point", "coordinates": [114.1, 10.9]},
		"properties": {
			"title": "Islas_Spratly",
			"content_type": "Wikipedia:Artículos_buenos",
			"geo_type": ""
			}
		},
		{ "type": "Feature",
		"geometry": {"type": "Point", "coordinates": [20.9958, 52.2461]},
		"properties": {
			"title": "Gueto_de_Varsovia",
			"content_type": "Wikipedia:Artículos_buenos",
			"geo_type": "landmark"
			}
		},
		{ "type": "Feature",
		"geometry": {"type": "Point", "coordinates": [20.0203, 39.7475]},
		"properties": {
			"title": "Butrinto",
			"content_type": "Wikipedia:Artículos_buenos",
			"geo_type": "landmark"
			}
		},
		{ "type": "Feature",
		"geometry": {"type": "Point", "coordinates": [-0.397239, 39.4227]},
		"properties": {
			"title": "Benetúser",
			"content_type": "Wikipedia:Artículos_buenos",
			"geo_type": "city"
			}
		},
		{ "type": "Feature",
		"geometry": {"type": "Point", "coordinates": [36.2086, 34.0061]},
		"properties": {
			"title": "Baalbek",
			"content_type": "Wikipedia:Artículos_buenos",
			"geo_type": "landmark"
			}
		},
		{ "type": "Feature",
		"geometry": {"type": "Point", "coordinates": [-4.88333, 36.5]},
		"properties": {
			"title": "Marbella",
			"content_type": "Wikipedia:Artículos_buenos",
			"geo_type": "city"
			}
		},
		{ "type": "Feature",
		"geometry": {"type": "Point", "coordinates": [-119.697, 34.4226]},
		"properties": {
			"title": "Presidio_Real_de_Santa_Bárbara",
			"content_type": "Wikipedia:Artículos_buenos",
			"geo_type": "landmark"
			}
		},
		{ "type": "Feature",
		"geometry": {"type": "Point", "coordinates": [15.5989, 27.7353]},
		"properties": {
			"title": "Faro_de_Maspalomas",
			"content_type": "Wikipedia:Artículos_buenos",
			"geo_type": "landmark"
			}
		},
		{ "type": "Feature",
		"geometry": {"type": "Point", "coordinates": [9.21, 45.518]},
		"properties": {
			"title": "Batalla_de_Bicoca",
			"content_type": "Wikipedia:Artículos_buenos",
			"geo_type": "event"
			}
		},
		{ "type": "Feature",
		"geometry": {"type": "Point", "coordinates": [-15.4376, 28.1401]},
		"properties": {
			"title": "Playa_de_Las_Canteras",
			"content_type": "Wikipedia:Artículos_buenos",
			"geo_type": "landmark"
			}
		},
		{ "type": "Feature",
		"geometry": {"type": "Point", "coordinates": [-82.3594, 23.1353]},
		"properties": {
			"title": "Capitolio_de_La_Habana",
			"content_type": "Wikipedia:Artículos_buenos",
			"geo_type": "landmark"
			}
		},
		{ "type": "Feature",
		"geometry": {"type": "Point", "coordinates": [-103.726, 19.2678]},
		"properties": {
			"title": "La_Campana_(Colima)",
			"content_type": "Wikipedia:Artículos_buenos",
			"geo_type": "city"
			}
		},
		{ "type": "Feature",
		"geometry": {"type": "Point", "coordinates": [-5.00333, 56.7969]},
		"properties": {
			"title": "Ben_Nevis",
			"content_type": "Wikipedia:Artículos_buenos",
			"geo_type": "mountain"
			}
		},
		{ "type": "Feature",
		"geometry": {"type": "Point", "coordinates": [-122.107, 42.9436]},
		"properties": {
			"title": "Lago_del_Cráter",
			"content_type": "Wikipedia:Artículos_buenos",
			"geo_type": "waterbody"
			}
		},
		{ "type": "Feature",
		"geometry": {"type": "Point", "coordinates": [-6.37111, 39.4731]},
		"properties": {
			"title": "Cáceres",
			"content_type": "Wikipedia:Artículos_buenos",
			"geo_type": "city"
			}
		},
		{ "type": "Feature",
		"geometry": {"type": "Point", "coordinates": [110.204, -7.60806]},
		"properties": {
			"title": "Borobudur",
			"content_type": "Wikipedia:Artículos_buenos",
			"geo_type": "landmark"
			}
		},
		{ "type": "Feature",
		"geometry": {"type": "Point", "coordinates": [-74.0125, 40.7117]},
		"properties": {
			"title": "Vuelo_11_de_American_Airlines",
			"content_type": "Wikipedia:Artículos_buenos",
			"geo_type": "event"
			}
		},
		{ "type": "Feature",
		"geometry": {"type": "Point", "coordinates": [-1.63944, 42.8356]},
		"properties": {
			"title": "Ansoáin",
			"content_type": "Wikipedia:Artículos_buenos",
			"geo_type": "city"
			}
		},
		{ "type": "Feature",
		"geometry": {"type": "Point", "coordinates": [23.318, 38.24]},
		"properties": {
			"title": "Batalla_de_Platea",
			"content_type": "Wikipedia:Artículos_buenos",
			"geo_type": "event"
			}
		},
		{ "type": "Feature",
		"geometry": {"type": "Point", "coordinates": [9.5, 61.8333]},
		"properties": {
			"title": "Parque_nacional_Rondane",
			"content_type": "Wikipedia:Artículos_buenos",
			"geo_type": "landmark"
			}
		},
		{ "type": "Feature",
		"geometry": {"type": "Point", "coordinates": [-2.64127, 41.0684]},
		"properties": {
			"title": "Catedral_de_Santa_María_de_Sigüenza",
			"content_type": "Wikipedia:Artículos_buenos",
			"geo_type": "landmark"
			}
		},
		{ "type": "Feature",
		"geometry": {"type": "Point", "coordinates": [27.1574, 37.6909]},
		"properties": {
			"title": "Batalla_de_Mícala",
			"content_type": "Wikipedia:Artículos_buenos",
			"geo_type": "event"
			}
		},
		{ "type": "Feature",
		"geometry": {"type": "Point", "coordinates": [-5.09111, 40.2086]},
		"properties": {
			"title": "Arenas_de_San_Pedro",
			"content_type": "Wikipedia:Artículos_buenos",
			"geo_type": ""
			}
		},
		{ "type": "Feature",
		"geometry": {"type": "Point", "coordinates": [-89.55, 14.0]},
		"properties": {
			"title": "Santa_Ana_(El_Salvador)",
			"content_type": "Wikipedia:Artículos_buenos",
			"geo_type": ""
			}
		},
		{ "type": "Feature",
		"geometry": {"type": "Point", "coordinates": [-2.98583, 41.1083]},
		"properties": {
			"title": "Hiendelaencina",
			"content_type": "Wikipedia:Artículos_buenos",
			"geo_type": ""
			}
		},
		{ "type": "Feature",
		"geometry": {"type": "Point", "coordinates": [12.1961, 44.4206]},
		"properties": {
			"title": "Iglesia_de_San_Vital_de_Rávena",
			"content_type": "Wikipedia:Artículos_buenos",
			"geo_type": "landmark"
			}
		},
		{ "type": "Feature",
		"geometry": {"type": "Point", "coordinates": [13.4661, 51.1556]},
		"properties": {
			"title": "Porcelana_de_Meissen",
			"content_type": "Wikipedia:Artículos_buenos",
			"geo_type": "landmark"
			}
		},
		{ "type": "Feature",
		"geometry": {"type": "Point", "coordinates": [130.65, 31.5833]},
		"properties": {
			"title": "Sakurajima",
			"content_type": "Wikipedia:Artículos_buenos",
			"geo_type": "mountain"
			}
		},
		{ "type": "Feature",
		"geometry": {"type": "Point", "coordinates": [-3.215, 43.3844]},
		"properties": {
			"title": "Castro_Urdiales",
			"content_type": "Wikipedia:Artículos_buenos",
			"geo_type": "city"
			}
		},
		{ "type": "Feature",
		"geometry": {"type": "Point", "coordinates": [-2.73667, 40.0361]},
		"properties": {
			"title": "Carrascosa_del_Campo",
			"content_type": "Wikipedia:Artículos_buenos",
			"geo_type": "city"
			}
		},
		{ "type": "Feature",
		"geometry": {"type": "Point", "coordinates": [-3.81518, 37.7397]},
		"properties": {
			"title": "Balneario_y_jardines_de_Jabalcuz",
			"content_type": "Wikipedia:Artículos_buenos",
			"geo_type": "landmark"
			}
		},
		{ "type": "Feature",
		"geometry": {"type": "Point", "coordinates": [-5.05917, 42.2786]},
		"properties": {
			"title": "Sahagún_(España)",
			"content_type": "Wikipedia:Artículos_buenos",
			"geo_type": "city"
			}
		},
		{ "type": "Feature",
		"geometry": {"type": "Point", "coordinates": [-6.25722, 53.3483]},
		"properties": {
			"title": "Abbey_Theatre",
			"content_type": "Wikipedia:Artículos_buenos",
			"geo_type": "landmark"
			}
		},
		{ "type": "Feature",
		"geometry": {"type": "Point", "coordinates": [-90.2859, 38.6385]},
		"properties": {
			"title": "Exposición_Universal_de_San_Luis_(1904)",
			"content_type": "Wikipedia:Artículos_buenos",
			"geo_type": "landmark"
			}
		},
		{ "type": "Feature",
		"geometry": {"type": "Point", "coordinates": [-120.236, 55.7606]},
		"properties": {
			"title": "Dawson_Creek",
			"content_type": "Wikipedia:Artículos_buenos",
			"geo_type": "city"
			}
		},
		{ "type": "Feature",
		"geometry": {"type": "Point", "coordinates": [20.8167, 52.3]},
		"properties": {
			"title": "Batalla_de_Varsovia_(1920)",
			"content_type": "Wikipedia:Artículos_buenos",
			"geo_type": "event"
			}
		},
		{ "type": "Feature",
		"geometry": {"type": "Point", "coordinates": [-122.187, 46.2003]},
		"properties": {
			"title": "Erupción_del_Monte_Santa_Helena_en_1980",
			"content_type": "Wikipedia:Artículos_buenos",
			"geo_type": "event"
			}
		},
		{ "type": "Feature",
		"geometry": {"type": "Point", "coordinates": [32.05, 54.7833]},
		"properties": {
			"title": "Batalla_de_Smolensk_(1943)",
			"content_type": "Wikipedia:Artículos_buenos",
			"geo_type": "event"
			}
		},
		{ "type": "Feature",
		"geometry": {"type": "Point", "coordinates": [116.213, 39.8492]},
		"properties": {
			"title": "Incidente_del_Puente_de_Marco_Polo",
			"content_type": "Wikipedia:Artículos_buenos",
			"geo_type": "event"
			}
		},
		{ "type": "Feature",
		"geometry": {"type": "Point", "coordinates": [-70.6531, -33.4391]},
		"properties": {
			"title": "Palacio_de_los_Tribunales_de_Justicia_de_Santiago",
			"content_type": "Wikipedia:Artículos_buenos",
			"geo_type": "landmark"
			}
		},
		{ "type": "Feature",
		"geometry": {"type": "Point", "coordinates": [-88.66, 13.04]},
		"properties": {
			"title": "Terremotos_de_El_Salvador_de_2001",
			"content_type": "Wikipedia:Artículos_buenos",
			"geo_type": "landmark"
			}
		},
		{ "type": "Feature",
		"geometry": {"type": "Point", "coordinates": [-4.73083, 41.6458]},
		"properties": {
			"title": "Campo_Grande_de_Valladolid",
			"content_type": "Wikipedia:Artículos_buenos",
			"geo_type": "forrest"
			}
		},
		{ "type": "Feature",
		"geometry": {"type": "Point", "coordinates": [20.4667, 44.8167]},
		"properties": {
			"title": "Reino_de_Serbia",
			"content_type": "Wikipedia:Artículos_buenos",
			"geo_type": "country"
			}
		},
		{ "type": "Feature",
		"geometry": {"type": "Point", "coordinates": [-5.95306, 42.3064]},
		"properties": {
			"title": "Palacios_de_la_Valduerna",
			"content_type": "Wikipedia:Artículos_buenos",
			"geo_type": "city"
			}
		},
		{ "type": "Feature",
		"geometry": {"type": "Point", "coordinates": [-6.31694, 36.8392]},
		"properties": {
			"title": "Sanlúcar_de_Barrameda",
			"content_type": "Wikipedia:Artículos_buenos",
			"geo_type": "city"
			}
		},
		{ "type": "Feature",
		"geometry": {"type": "Point", "coordinates": [-15.4141, 28.1036]},
		"properties": {
			"title": "Teatro_Pérez_Galdós",
			"content_type": "Wikipedia:Artículos_buenos",
			"geo_type": "landmark"
			}
		},
		{ "type": "Feature",
		"geometry": {"type": "Point", "coordinates": [-3.43167, 56.3953]},
		"properties": {
			"title": "Perth_(Escocia)",
			"content_type": "Wikipedia:Artículos_buenos",
			"geo_type": "city"
			}
		},
		{ "type": "Feature",
		"geometry": {"type": "Point", "coordinates": [-5.57147, 42.5962]},
		"properties": {
			"title": "Teatro_Emperador",
			"content_type": "Wikipedia:Artículos_buenos",
			"geo_type": ""
			}
		},
		{ "type": "Feature",
		"geometry": {"type": "Point", "coordinates": [-4.72729, 41.6443]},
		"properties": {
			"title": "Convento_de_San_José_de_Padres_Capuchinos",
			"content_type": "Wikipedia:Artículos_buenos",
			"geo_type": "landmark"
			}
		},
		{ "type": "Feature",
		"geometry": {"type": "Point", "coordinates": [-99.1617, 19.4164]},
		"properties": {
			"title": "Colonia_Roma",
			"content_type": "Wikipedia:Artículos_buenos",
			"geo_type": "city"
			}
		},
		{ "type": "Feature",
		"geometry": {"type": "Point", "coordinates": [25.53, 40.5008]},
		"properties": {
			"title": "Santuario_de_los_Grandes_Dioses_de_Samotracia",
			"content_type": "Wikipedia:Artículos_buenos",
			"geo_type": ""
			}
		},
		{ "type": "Feature",
		"geometry": {"type": "Point", "coordinates": [-77.0869, -12.0536]},
		"properties": {
			"title": "Facultad_de_Psicología_(Universidad_Nacional_Mayor_de_San_Marcos)",
			"content_type": "Wikipedia:Artículos_buenos",
			"geo_type": "city"
			}
		},
		{ "type": "Feature",
		"geometry": {"type": "Point", "coordinates": [79.9708, 30.5406]},
		"properties": {
			"title": "Nanda_Devi",
			"content_type": "Wikipedia:Artículos_buenos",
			"geo_type": "mountain"
			}
		},
		{ "type": "Feature",
		"geometry": {"type": "Point", "coordinates": [-88.5686, 20.6828]},
		"properties": {
			"title": "Templo_de_Kukulkán",
			"content_type": "Wikipedia:Artículos_buenos",
			"geo_type": "landmark"
			}
		},
		{ "type": "Feature",
		"geometry": {"type": "Point", "coordinates": [-58.7472, -37.6244]},
		"properties": {
			"title": "Napaleofú",
			"content_type": "Wikipedia:Artículos_buenos",
			"geo_type": "city"
			}
		},
		{ "type": "Feature",
		"geometry": {"type": "Point", "coordinates": [-4.72111, 41.6558]},
		"properties": {
			"title": "Convento_de_las_Descalzas_Reales_(Valladolid)",
			"content_type": "Wikipedia:Artículos_buenos",
			"geo_type": "landmark"
			}
		},
		{ "type": "Feature",
		"geometry": {"type": "Point", "coordinates": [4.0, 1.0]},
		"properties": {
			"title": "Batalla_naval_de_Guinea",
			"content_type": "Wikipedia:Artículos_buenos",
			"geo_type": "event"
			}
		},
		{ "type": "Feature",
		"geometry": {"type": "Point", "coordinates": [-66.9291, 10.5034]},
		"properties": {
			"title": "Observatorio_Naval_Cagigal",
			"content_type": "Wikipedia:Artículos_buenos",
			"geo_type": ""
			}
		},
		{ "type": "Feature",
		"geometry": {"type": "Point", "coordinates": [-3.93333, 40.4167]},
		"properties": {
			"title": "Parque_regional_del_Curso_medio_del_río_Guadarrama_y_su_entorno",
			"content_type": "Wikipedia:Artículos_buenos",
			"geo_type": "landmark"
			}
		},
		{ "type": "Feature",
		"geometry": {"type": "Point", "coordinates": [178.617, 51.35]},
		"properties": {
			"title": "Isla_Amchitka",
			"content_type": "Wikipedia:Artículos_buenos",
			"geo_type": ""
			}
		},
		{ "type": "Feature",
		"geometry": {"type": "Point", "coordinates": [135.742, 35.0136]},
		"properties": {
			"title": "Palacio_Heian",
			"content_type": "Wikipedia:Artículos_buenos",
			"geo_type": ""
			}
		},
		{ "type": "Feature",
		"geometry": {"type": "Point", "coordinates": [-5.43694, 56.4547]},
		"properties": {
			"title": "Castillo_de_Dunstaffnage",
			"content_type": "Wikipedia:Artículos_buenos",
			"geo_type": "landmark"
			}
		},
		{ "type": "Feature",
		"geometry": {"type": "Point", "coordinates": [-83.3533, 42.2125]},
		"properties": {
			"title": "Aeropuerto_Internacional_de_Detroit",
			"content_type": "Wikipedia:Artículos_buenos",
			"geo_type": "airport"
			}
		},
		{ "type": "Feature",
		"geometry": {"type": "Point", "coordinates": [-58.3925, -34.605]},
		"properties": {
			"title": "Hotel_BAUEN",
			"content_type": "Wikipedia:Artículos_buenos",
			"geo_type": "landmark"
			}
		},
		{ "type": "Feature",
		"geometry": {"type": "Point", "coordinates": [12.5693, 55.6766]},
		"properties": {
			"title": "Incendio_de_Copenhague_de_1728",
			"content_type": "Wikipedia:Artículos_buenos",
			"geo_type": "event"
			}
		},
		{ "type": "Feature",
		"geometry": {"type": "Point", "coordinates": [-6.28333, 36.5167]},
		"properties": {
			"title": "Cádiz",
			"content_type": "Wikipedia:Artículos_buenos",
			"geo_type": "city"
			}
		},
		{ "type": "Feature",
		"geometry": {"type": "Point", "coordinates": [39.8336, 35.7078]},
		"properties": {
			"title": "Operación_Huerto",
			"content_type": "Wikipedia:Artículos_buenos",
			"geo_type": "event"
			}
		},
		{ "type": "Feature",
		"geometry": {"type": "Point", "coordinates": [2.36379, 43.2064]},
		"properties": {
			"title": "Ciudadela_de_Carcasona",
			"content_type": "Wikipedia:Artículos_buenos",
			"geo_type": "landmark"
			}
		},
		{ "type": "Feature",
		"geometry": {"type": "Point", "coordinates": [19.1333, 60.3008]},
		"properties": {
			"title": "Märket",
			"content_type": "Wikipedia:Artículos_buenos",
			"geo_type": "isle"
			}
		},
		{ "type": "Feature",
		"geometry": {"type": "Point", "coordinates": [-4.45111, 37.1492]},
		"properties": {
			"title": "Archidona_(España)",
			"content_type": "Wikipedia:Artículos_buenos",
			"geo_type": ""
			}
		},
		{ "type": "Feature",
		"geometry": {"type": "Point", "coordinates": [-79.875, 32.7524]},
		"properties": {
			"title": "Batalla_de_Fort_Sumter",
			"content_type": "Wikipedia:Artículos_buenos",
			"geo_type": "event"
			}
		},
		{ "type": "Feature",
		"geometry": {"type": "Point", "coordinates": [2.1775, 41.3822]},
		"properties": {
			"title": "Casa_de_la_Ciudad_de_Barcelona",
			"content_type": "Wikipedia:Artículos_buenos",
			"geo_type": "landmark"
			}
		},
		{ "type": "Feature",
		"geometry": {"type": "Point", "coordinates": [-1.18278, 42.6153]},
		"properties": {
			"title": "Embalse_de_Yesa",
			"content_type": "Wikipedia:Artículos_buenos",
			"geo_type": "dam"
			}
		},
		{ "type": "Feature",
		"geometry": {"type": "Point", "coordinates": [9.94861, 48.3814]},
		"properties": {
			"title": "Hochschule_für_Gestaltung",
			"content_type": "Wikipedia:Artículos_buenos",
			"geo_type": "edu"
			}
		},
		{ "type": "Feature",
		"geometry": {"type": "Point", "coordinates": [-4.09925, 36.7821]},
		"properties": {
			"title": "Vélez-Málaga",
			"content_type": "Wikipedia:Artículos_buenos",
			"geo_type": "city"
			}
		},
		{ "type": "Feature",
		"geometry": {"type": "Point", "coordinates": [-91.3828, 40.5444]},
		"properties": {
			"title": "Nauvoo",
			"content_type": "Wikipedia:Artículos_buenos",
			"geo_type": "city"
			}
		},
		{ "type": "Feature",
		"geometry": {"type": "Point", "coordinates": [-0.0976861, 39.9397]},
		"properties": {
			"title": "Santuario_de_San_Pascual_Baylón",
			"content_type": "Wikipedia:Artículos_buenos",
			"geo_type": "landmark"
			}
		},
		{ "type": "Feature",
		"geometry": {"type": "Point", "coordinates": [14.0944, 41.0919]},
		"properties": {
			"title": "Batalla_del_Volturno",
			"content_type": "Wikipedia:Artículos_buenos",
			"geo_type": "event"
			}
		},
		{ "type": "Feature",
		"geometry": {"type": "Point", "coordinates": [-3.16139, 56.1131]},
		"properties": {
			"title": "Kirkcaldy",
			"content_type": "Wikipedia:Artículos_buenos",
			"geo_type": "city"
			}
		},
		{ "type": "Feature",
		"geometry": {"type": "Point", "coordinates": [2.18694, 41.4225]},
		"properties": {
			"title": "Estación_de_La_Sagrera",
			"content_type": "Wikipedia:Artículos_buenos",
			"geo_type": "railwaystation"
			}
		},
		{ "type": "Feature",
		"geometry": {"type": "Point", "coordinates": [-1.85583, 38.9956]},
		"properties": {
			"title": "Albacete",
			"content_type": "Wikipedia:Artículos_buenos",
			"geo_type": "city"
			}
		},
		{ "type": "Feature",
		"geometry": {"type": "Point", "coordinates": [-0.698333, 38.2669]},
		"properties": {
			"title": "Elche",
			"content_type": "Wikipedia:Artículos_buenos",
			"geo_type": "city"
			}
		},
		{ "type": "Feature",
		"geometry": {"type": "Point", "coordinates": [14.55, 41.1833]},
		"properties": {
			"title": "Batalla_del_Ager_Falernus",
			"content_type": "Wikipedia:Artículos_buenos",
			"geo_type": "event"
			}
		},
		{ "type": "Feature",
		"geometry": {"type": "Point", "coordinates": [2.17472, 41.4303]},
		"properties": {
			"title": "Estación_de_Virrei_Amat",
			"content_type": "Wikipedia:Artículos_buenos",
			"geo_type": "railwaystation"
			}
		},
		{ "type": "Feature",
		"geometry": {"type": "Point", "coordinates": [-6.78758, 37.8695]},
		"properties": {
			"title": "Mezquita_de_Almonaster_la_Real",
			"content_type": "Wikipedia:Artículos_buenos",
			"geo_type": "landmark"
			}
		},
		{ "type": "Feature",
		"geometry": {"type": "Point", "coordinates": [-2.44, 50.55]},
		"properties": {
			"title": "Isla_de_Pórtland",
			"content_type": "Wikipedia:Artículos_buenos",
			"geo_type": "city"
			}
		},
		{ "type": "Feature",
		"geometry": {"type": "Point", "coordinates": [-100.442, 20.5508]},
		"properties": {
			"title": "Chalcatzingo",
			"content_type": "Wikipedia:Artículos_buenos",
			"geo_type": "city"
			}
		},
		{ "type": "Feature",
		"geometry": {"type": "Point", "coordinates": [-71.9788, -13.5167]},
		"properties": {
			"title": "Plaza_de_Armas_del_Cuzco",
			"content_type": "Wikipedia:Artículos_buenos",
			"geo_type": "landmark"
			}
		},
		{ "type": "Feature",
		"geometry": {"type": "Point", "coordinates": [12.5, 41.9]},
		"properties": {
			"title": "Sitio_de_Roma_(537-538)",
			"content_type": "Wikipedia:Artículos_buenos",
			"geo_type": "event"
			}
		},
		{ "type": "Feature",
		"geometry": {"type": "Point", "coordinates": [1.37417, 51.3797]},
		"properties": {
			"title": "Hartsdown_Park",
			"content_type": "Wikipedia:Artículos_buenos",
			"geo_type": "landmark"
			}
		},
		{ "type": "Feature",
		"geometry": {"type": "Point", "coordinates": [2.35028, 48.8492]},
		"properties": {
			"title": "Iglesia_de_Saint-Nicolas-du-Chardonnet",
			"content_type": "Wikipedia:Artículos_buenos",
			"geo_type": ""
			}
		},
		{ "type": "Feature",
		"geometry": {"type": "Point", "coordinates": [30.5228, 50.4556]},
		"properties": {
			"title": "Monasterio_de_San_Miguel_de_las_Cúpulas_Doradas",
			"content_type": "Wikipedia:Artículos_buenos",
			"geo_type": "landmark"
			}
		},
		{ "type": "Feature",
		"geometry": {"type": "Point", "coordinates": [14.2, 40.9667]},
		"properties": {
			"title": "Aversa",
			"content_type": "Wikipedia:Artículos_buenos",
			"geo_type": "city"
			}
		},
		{ "type": "Feature",
		"geometry": {"type": "Point", "coordinates": [2.29642, 48.8735]},
		"properties": {
			"title": "Liberación_de_París",
			"content_type": "Wikipedia:Artículos_buenos",
			"geo_type": "event"
			}
		},
		{ "type": "Feature",
		"geometry": {"type": "Point", "coordinates": [-2.7, 43.2492]},
		"properties": {
			"title": "Río_Oka_(Vizcaya)",
			"content_type": "Wikipedia:Artículos_buenos",
			"geo_type": "waterbody"
			}
		},
		{ "type": "Feature",
		"geometry": {"type": "Point", "coordinates": [5.69092, 42.7793]},
		"properties": {
			"title": "Batalla_de_Tolón",
			"content_type": "Wikipedia:Artículos_buenos",
			"geo_type": "event"
			}
		},
		{ "type": "Feature",
		"geometry": {"type": "Point", "coordinates": [36.3, 49.9]},
		"properties": {
			"title": "República_Socialista_Soviética_de_Donetsk-Krivoy_Rog",
			"content_type": "Wikipedia:Artículos_buenos",
			"geo_type": "country"
			}
		},
		{ "type": "Feature",
		"geometry": {"type": "Point", "coordinates": [-6.967, 38.879]},
		"properties": {
			"title": "Batalla_de_Gévora",
			"content_type": "Wikipedia:Artículos_buenos",
			"geo_type": "event"
			}
		},
		{ "type": "Feature",
		"geometry": {"type": "Point", "coordinates": [-2.26667, 47.0]},
		"properties": {
			"title": "Isla_de_Noirmoutier",
			"content_type": "Wikipedia:Artículos_buenos",
			"geo_type": "isle"
			}
		},
		{ "type": "Feature",
		"geometry": {"type": "Point", "coordinates": [24.1131, 56.9514]},
		"properties": {
			"title": "Monumento_a_la_Libertad_(Riga)",
			"content_type": "Wikipedia:Artículos_buenos",
			"geo_type": "landmark"
			}
		},
		{ "type": "Feature",
		"geometry": {"type": "Point", "coordinates": [-115.172, 36.1208]},
		"properties": {
			"title": "Las_Vegas_Strip",
			"content_type": "Wikipedia:Artículos_buenos",
			"geo_type": "landmark"
			}
		},
		{ "type": "Feature",
		"geometry": {"type": "Point", "coordinates": [-7.31667, 37.2]},
		"properties": {
			"title": "Puerto_de_Isla_Cristina",
			"content_type": "Wikipedia:Artículos_buenos",
			"geo_type": "city"
			}
		},
		{ "type": "Feature",
		"geometry": {"type": "Point", "coordinates": [-73.9786, 40.5744]},
		"properties": {
			"title": "Coney_Island",
			"content_type": "Wikipedia:Artículos_buenos",
			"geo_type": "landmark"
			}
		},
		{ "type": "Feature",
		"geometry": {"type": "Point", "coordinates": [-3.15889, 55.8525]},
		"properties": {
			"title": "Castillo_de_Roslin",
			"content_type": "Wikipedia:Artículos_buenos",
			"geo_type": "landmark"
			}
		},
		{ "type": "Feature",
		"geometry": {"type": "Point", "coordinates": [-2.3595, 51.3809]},
		"properties": {
			"title": "Termas_romanas_de_Bath",
			"content_type": "Wikipedia:Artículos_buenos",
			"geo_type": "landmark"
			}
		},
		{ "type": "Feature",
		"geometry": {"type": "Point", "coordinates": [-2.11056, 42.1342]},
		"properties": {
			"title": "Muro_de_Aguas",
			"content_type": "Wikipedia:Artículos_buenos",
			"geo_type": "city"
			}
		},
		{ "type": "Feature",
		"geometry": {"type": "Point", "coordinates": [-2.69444, 53.3339]},
		"properties": {
			"title": "Castillo_de_Halton",
			"content_type": "Wikipedia:Artículos_buenos",
			"geo_type": ""
			}
		},
		{ "type": "Feature",
		"geometry": {"type": "Point", "coordinates": [22.8842, 37.9341]},
		"properties": {
			"title": "Batalla_de_Lequeo",
			"content_type": "Wikipedia:Artículos_buenos",
			"geo_type": "event"
			}
		},
		{ "type": "Feature",
		"geometry": {"type": "Point", "coordinates": [-2.69111, 53.1289]},
		"properties": {
			"title": "Castillo_de_Beeston",
			"content_type": "Wikipedia:Artículos_buenos",
			"geo_type": ""
			}
		},
		{ "type": "Feature",
		"geometry": {"type": "Point", "coordinates": [-0.166667, 51.4822]},
		"properties": {
			"title": "Albert_Bridge",
			"content_type": "Wikipedia:Artículos_buenos",
			"geo_type": "city"
			}
		},
		{ "type": "Feature",
		"geometry": {"type": "Point", "coordinates": [31.2333, 33.0]},
		"properties": {
			"title": "Fustat",
			"content_type": "Wikipedia:Artículos_buenos",
			"geo_type": ""
			}
		},
		{ "type": "Feature",
		"geometry": {"type": "Point", "coordinates": [-72.7005, 41.7671]},
		"properties": {
			"title": "Casa_de_Mark_Twain",
			"content_type": "Wikipedia:Artículos_buenos",
			"geo_type": "landmark"
			}
		},
		{ "type": "Feature",
		"geometry": {"type": "Point", "coordinates": [23.7942, 38.3928]},
		"properties": {
			"title": "Sitio_de_Eretria",
			"content_type": "Wikipedia:Artículos_buenos",
			"geo_type": "event"
			}
		},
		{ "type": "Feature",
		"geometry": {"type": "Point", "coordinates": [-23.5386, 58.9472]},
		"properties": {
			"title": "Castillo_de_Haapsalu",
			"content_type": "Wikipedia:Artículos_buenos",
			"geo_type": ""
			}
		},
		{ "type": "Feature",
		"geometry": {"type": "Point", "coordinates": [-88.6942, 41.9839]},
		"properties": {
			"title": "Civil_War_Memorial_(Sycamore)",
			"content_type": "Wikipedia:Artículos_buenos",
			"geo_type": "landmark"
			}
		},
		{ "type": "Feature",
		"geometry": {"type": "Point", "coordinates": [-4.26139, 41.6294]},
		"properties": {
			"title": "Monasterio_de_Santa_María_de_Valbuena",
			"content_type": "Wikipedia:Artículos_buenos",
			"geo_type": "landmark"
			}
		},
		{ "type": "Feature",
		"geometry": {"type": "Point", "coordinates": [5.71667, 54.3333]},
		"properties": {
			"title": "SMS_Blücher",
			"content_type": "Wikipedia:Artículos_buenos",
			"geo_type": ""
			}
		},
		{ "type": "Feature",
		"geometry": {"type": "Point", "coordinates": [-77.6488, 38.3115]},
		"properties": {
			"title": "Batalla_de_Chancellorsville",
			"content_type": "Wikipedia:Artículos_buenos",
			"geo_type": ""
			}
		},
		{ "type": "Feature",
		"geometry": {"type": "Point", "coordinates": [5.88333, 56.25]},
		"properties": {
			"title": "SMS_Lützow",
			"content_type": "Wikipedia:Artículos_buenos",
			"geo_type": ""
			}
		},
		{ "type": "Feature",
		"geometry": {"type": "Point", "coordinates": [-3.16944, 40.6383]},
		"properties": {
			"title": "Alcázar_Real_de_Guadalajara",
			"content_type": "Wikipedia:Artículos_buenos",
			"geo_type": "landmark"
			}
		},
		{ "type": "Feature",
		"geometry": {"type": "Point", "coordinates": [106.695, 10.7769]},
		"properties": {
			"title": "Bombardeo_del_Palacio_de_la_Independencia_de_Vietnam_del_Sur_de_1962",
			"content_type": "Wikipedia:Artículos_buenos",
			"geo_type": "landmark"
			}
		},
		{ "type": "Feature",
		"geometry": {"type": "Point", "coordinates": [16.9167, 52.4]},
		"properties": {
			"title": "Protestas_de_Poznań_de_1956",
			"content_type": "Wikipedia:Artículos_buenos",
			"geo_type": "event"
			}
		},
		{ "type": "Feature",
		"geometry": {"type": "Point", "coordinates": [-66.0889, -26.4639]},
		"properties": {
			"title": "Ruinas_de_los_Quilmes",
			"content_type": "Wikipedia:Artículos_buenos",
			"geo_type": "landmark"
			}
		},
		{ "type": "Feature",
		"geometry": {"type": "Point", "coordinates": [19.5, 41.3]},
		"properties": {
			"title": "Batalla_de_Dirraquio_(1081)",
			"content_type": "Wikipedia:Artículos_buenos",
			"geo_type": "event"
			}
		},
		{ "type": "Feature",
		"geometry": {"type": "Point", "coordinates": [-0.12764, 51.5034]},
		"properties": {
			"title": "10_de_Downing_Street",
			"content_type": "Wikipedia:Artículos_buenos",
			"geo_type": "landmark"
			}
		},
		{ "type": "Feature",
		"geometry": {"type": "Point", "coordinates": [16.1717, 43.0892]},
		"properties": {
			"title": "Batalla_de_Lissa_(1811)",
			"content_type": "Wikipedia:Artículos_buenos",
			"geo_type": "event"
			}
		},
		{ "type": "Feature",
		"geometry": {"type": "Point", "coordinates": [-2.87861, 53.1914]},
		"properties": {
			"title": "Deva_Victrix",
			"content_type": "Wikipedia:Artículos_buenos",
			"geo_type": "city"
			}
		},
		{ "type": "Feature",
		"geometry": {"type": "Point", "coordinates": [-4.31028, 41.4008]},
		"properties": {
			"title": "Convento_de_la_Purísima_Concepción_(Cuéllar)",
			"content_type": "Wikipedia:Artículos_buenos",
			"geo_type": "landmark"
			}
		},
		{ "type": "Feature",
		"geometry": {"type": "Point", "coordinates": [-5.3551, 36.1397]},
		"properties": {
			"title": "Sitio_de_Gibraltar_(1779-1783)",
			"content_type": "Wikipedia:Artículos_buenos",
			"geo_type": "event"
			}
		},
		{ "type": "Feature",
		"geometry": {"type": "Point", "coordinates": [-2.003, 53.583]},
		"properties": {
			"title": "Fuerte_romano_de_Castleshaw",
			"content_type": "Wikipedia:Artículos_buenos",
			"geo_type": "landmark"
			}
		},
		{ "type": "Feature",
		"geometry": {"type": "Point", "coordinates": [-1.8, 37.95]},
		"properties": {
			"title": "Leyenda_de_la_Encantada",
			"content_type": "Wikipedia:Artículos_buenos",
			"geo_type": "city"
			}
		},
		{ "type": "Feature",
		"geometry": {"type": "Point", "coordinates": [-0.0983333, 51.5136]},
		"properties": {
			"title": "Antigua_Catedral_de_San_Pablo",
			"content_type": "Wikipedia:Artículos_buenos",
			"geo_type": "landmark"
			}
		},
		{ "type": "Feature",
		"geometry": {"type": "Point", "coordinates": [-5.45389, 36.1275]},
		"properties": {
			"title": "Sitio_de_Algeciras_(1342-1344)",
			"content_type": "Wikipedia:Artículos_buenos",
			"geo_type": "event"
			}
		},
		{ "type": "Feature",
		"geometry": {"type": "Point", "coordinates": [-0.0822, 51.5156]},
		"properties": {
			"title": "Atentado_de_Bishopsgate_de_1993",
			"content_type": "Wikipedia:Artículos_buenos",
			"geo_type": "event"
			}
		},
		{ "type": "Feature",
		"geometry": {"type": "Point", "coordinates": [-73.0389, -36.8275]},
		"properties": {
			"title": "Presencia_de_América_Latina",
			"content_type": "Wikipedia:Artículos_buenos",
			"geo_type": "landmark"
			}
		},
		{ "type": "Feature",
		"geometry": {"type": "Point", "coordinates": [-84.5556, 42.7337]},
		"properties": {
			"title": "Capitolio_del_Estado_de_Míchigan",
			"content_type": "Wikipedia:Artículos_buenos",
			"geo_type": "landmark"
			}
		},
		{ "type": "Feature",
		"geometry": {"type": "Point", "coordinates": [29.0435, 40.973]},
		"properties": {
			"title": "Concilio_de_Hieria",
			"content_type": "Wikipedia:Artículos_buenos",
			"geo_type": ""
			}
		},
		{ "type": "Feature",
		"geometry": {"type": "Point", "coordinates": [-75.564, 6.25389]},
		"properties": {
			"title": "Parque_de_Bolívar_(Medellín)",
			"content_type": "Wikipedia:Artículos_buenos",
			"geo_type": "forrest"
			}
		},
		{ "type": "Feature",
		"geometry": {"type": "Point", "coordinates": [76.9832, 29.3096]},
		"properties": {
			"title": "Atentado_del_Samjhauta_Express_en_2007",
			"content_type": "Wikipedia:Artículos_buenos",
			"geo_type": "event"
			}
		},
		{ "type": "Feature",
		"geometry": {"type": "Point", "coordinates": [-118.395, 34.1914]},
		"properties": {
			"title": "Tiroteo_de_North_Hollywood",
			"content_type": "Wikipedia:Artículos_buenos",
			"geo_type": "event"
			}
		},
		{ "type": "Feature",
		"geometry": {"type": "Point", "coordinates": [10.7343, 59.949]},
		"properties": {
			"title": "Ullevaal_Stadion",
			"content_type": "Wikipedia:Artículos_buenos",
			"geo_type": "landmark"
			}
		},
		{ "type": "Feature",
		"geometry": {"type": "Point", "coordinates": [30.5286, 50.445]},
		"properties": {
			"title": "Casa_con_Quimeras",
			"content_type": "Wikipedia:Artículos_buenos",
			"geo_type": "landmark"
			}
		},
		{ "type": "Feature",
		"geometry": {"type": "Point", "coordinates": [-79.6247, 43.6564]},
		"properties": {
			"title": "Vuelo_358_de_Air_France",
			"content_type": "Wikipedia:Artículos_buenos",
			"geo_type": "event"
			}
		},
		{ "type": "Feature",
		"geometry": {"type": "Point", "coordinates": [-121.705, 45.3925]},
		"properties": {
			"title": "Monte_Hood",
			"content_type": "Wikipedia:Artículos_buenos",
			"geo_type": "glacier"
			}
		},
		{ "type": "Feature",
		"geometry": {"type": "Point", "coordinates": [160.052, -9.42889]},
		"properties": {
			"title": "Batalla_por_el_Campo_Henderson",
			"content_type": "Wikipedia:Artículos_buenos",
			"geo_type": "airport"
			}
		},
		{ "type": "Feature",
		"geometry": {"type": "Point", "coordinates": [-73.3613, 5.53362]},
		"properties": {
			"title": "Catedral_Basílica_Metropolitana_Santiago_de_Tunja",
			"content_type": "Wikipedia:Artículos_buenos",
			"geo_type": "landmark"
			}
		},
		{ "type": "Feature",
		"geometry": {"type": "Point", "coordinates": [27.9822, -26.2347]},
		"properties": {
			"title": "Estadios_de_la_Copa_Mundial_de_Fútbol_de_2010",
			"content_type": "Wikipedia:Artículos_buenos",
			"geo_type": ""
			}
		},
		{ "type": "Feature",
		"geometry": {"type": "Point", "coordinates": [15.0, 43.0]},
		"properties": {
			"title": "Acción_militar_del_22_de_febrero_de_1812",
			"content_type": "Wikipedia:Artículos_buenos",
			"geo_type": "event"
			}
		},
		{ "type": "Feature",
		"geometry": {"type": "Point", "coordinates": [2.5525, 50.1306]},
		"properties": {
			"title": "Río_Authie",
			"content_type": "Wikipedia:Artículos_buenos",
			"geo_type": "river"
			}
		},
		{ "type": "Feature",
		"geometry": {"type": "Point", "coordinates": [-74.0232, 40.7424]},
		"properties": {
			"title": "Colisión_aérea_en_el_río_Hudson_de_2009",
			"content_type": "Wikipedia:Artículos_buenos",
			"geo_type": "event"
			}
		},
		{ "type": "Feature",
		"geometry": {"type": "Point", "coordinates": [-73.976, 40.7764]},
		"properties": {
			"title": "Asesinato_de_John_Lennon",
			"content_type": "Wikipedia:Artículos_buenos",
			"geo_type": "event"
			}
		},
		{ "type": "Feature",
		"geometry": {"type": "Point", "coordinates": [-117.196, 32.754]},
		"properties": {
			"title": "Casa_de_Estudillo",
			"content_type": "Wikipedia:Artículos_buenos",
			"geo_type": "landmark"
			}
		},
		{ "type": "Feature",
		"geometry": {"type": "Point", "coordinates": [-0.075354, 51.599]},
		"properties": {
			"title": "Castillo_de_Bruce",
			"content_type": "Wikipedia:Artículos_buenos",
			"geo_type": "landmark"
			}
		},
		{ "type": "Feature",
		"geometry": {"type": "Point", "coordinates": [-82.3572, 23.1402]},
		"properties": {
			"title": "Museo_Nacional_de_Bellas_Artes_(Cuba)",
			"content_type": "Wikipedia:Artículos_buenos",
			"geo_type": "landmark"
			}
		},
		{ "type": "Feature",
		"geometry": {"type": "Point", "coordinates": [-81.68, 28.84]},
		"properties": {
			"title": "Depresión_tropical_Diez_(2007)",
			"content_type": "Wikipedia:Artículos_buenos",
			"geo_type": "event"
			}
		},
		{ "type": "Feature",
		"geometry": {"type": "Point", "coordinates": [10.1345, 36.8094]},
		"properties": {
			"title": "Museo_Nacional_del_Bardo",
			"content_type": "Wikipedia:Artículos_buenos",
			"geo_type": "landmark"
			}
		},
		{ "type": "Feature",
		"geometry": {"type": "Point", "coordinates": [-90.2094, 38.6423]},
		"properties": {
			"title": "Pruitt-Igoe",
			"content_type": "Wikipedia:Artículos_buenos",
			"geo_type": "landmark"
			}
		},
		{ "type": "Feature",
		"geometry": {"type": "Point", "coordinates": [122.6, 41.3]},
		"properties": {
			"title": "Biota_de_Jehol",
			"content_type": "Wikipedia:Artículos_buenos",
			"geo_type": "adm1st"
			}
		},
		{ "type": "Feature",
		"geometry": {"type": "Point", "coordinates": [-89.5167, 21.4]},
		"properties": {
			"title": "Cráter_de_Chicxulub",
			"content_type": "Wikipedia:Artículos_buenos",
			"geo_type": "landmark"
			}
		},
		{ "type": "Feature",
		"geometry": {"type": "Point", "coordinates": [-9.66667, 30.0833]},
		"properties": {
			"title": "Parque_nacional_de_Souss-Massa",
			"content_type": "Wikipedia:Artículos_buenos",
			"geo_type": "landmark"
			}
		},
		{ "type": "Feature",
		"geometry": {"type": "Point", "coordinates": [-0.3868, 39.5164]},
		"properties": {
			"title": "Poblados_del_Norte",
			"content_type": "Wikipedia:Artículos_buenos",
			"geo_type": "city"
			}
		},
		{ "type": "Feature",
		"geometry": {"type": "Point", "coordinates": [34.4714, 31.5012]},
		"properties": {
			"title": "Gran_Mezquita_de_Gaza",
			"content_type": "Wikipedia:Artículos_buenos",
			"geo_type": "landmark"
			}
		},
		{ "type": "Feature",
		"geometry": {"type": "Point", "coordinates": [54.2214, 24.2835]},
		"properties": {
			"title": "Louvre_Abu_Dabi",
			"content_type": "Wikipedia:Artículos_buenos",
			"geo_type": "landmark"
			}
		},
		{ "type": "Feature",
		"geometry": {"type": "Point", "coordinates": [-75.5902, 6.2568]},
		"properties": {
			"title": "Ceremonia_de_apertura_de_los_Juegos_Suramericanos_de_2010",
			"content_type": "Wikipedia:Artículos_buenos",
			"geo_type": "landmark"
			}
		},
		{ "type": "Feature",
		"geometry": {"type": "Point", "coordinates": [43.0839, 38.6088]},
		"properties": {
			"title": "Ktuts_Anapat",
			"content_type": "Wikipedia:Artículos_buenos",
			"geo_type": "landmark"
			}
		},
		{ "type": "Feature",
		"geometry": {"type": "Point", "coordinates": [-74.55, -8.38333]},
		"properties": {
			"title": "Pucallpa",
			"content_type": "Wikipedia:Artículos_buenos",
			"geo_type": "city"
			}
		},
		{ "type": "Feature",
		"geometry": {"type": "Point", "coordinates": [-4.09778, 56.6678]},
		"properties": {
			"title": "Experimento_de_Schiehallion",
			"content_type": "Wikipedia:Artículos_buenos",
			"geo_type": ""
			}
		},
		{ "type": "Feature",
		"geometry": {"type": "Point", "coordinates": [-73.0369, -36.8281]},
		"properties": {
			"title": "Campanil_(Universidad_de_Concepción)",
			"content_type": "Wikipedia:Artículos_buenos",
			"geo_type": "landmark"
			}
		},
		{ "type": "Feature",
		"geometry": {"type": "Point", "coordinates": [-73.0389, -36.8275]},
		"properties": {
			"title": "Homenaje_al_espíritu_de_los_fundadores_de_la_Universidad_de_Concepción",
			"content_type": "Wikipedia:Artículos_buenos",
			"geo_type": "landmark"
			}
		},
		{ "type": "Feature",
		"geometry": {"type": "Point", "coordinates": [-16.2692, 28.5365]},
		"properties": {
			"title": "Macizo_de_Anaga",
			"content_type": "Wikipedia:Artículos_buenos",
			"geo_type": "mountain"
			}
		},
		{ "type": "Feature",
		"geometry": {"type": "Point", "coordinates": [107.578, 16.4694]},
		"properties": {
			"title": "Tiroteos_en_Huế",
			"content_type": "Wikipedia:Artículos_buenos",
			"geo_type": "event"
			}
		},
		{ "type": "Feature",
		"geometry": {"type": "Point", "coordinates": [-68.8156, 10.1514]},
		"properties": {
			"title": "Parque_de_Recreación_Embalse_Cumaripa",
			"content_type": "Wikipedia:Artículos_buenos",
			"geo_type": "dam"
			}
		},
		{ "type": "Feature",
		"geometry": {"type": "Point", "coordinates": [-3.09613, 54.6033]},
		"properties": {
			"title": "Círculo_de_piedras_de_Castlerigg",
			"content_type": "Wikipedia:Artículos_buenos",
			"geo_type": "landmark"
			}
		},
		{ "type": "Feature",
		"geometry": {"type": "Point", "coordinates": [18.108, 42.64]},
		"properties": {
			"title": "Murallas_de_Dubrovnik",
			"content_type": "Wikipedia:Artículos_buenos",
			"geo_type": "landmark"
			}
		},
		{ "type": "Feature",
		"geometry": {"type": "Point", "coordinates": [6.46667, 64.45]},
		"properties": {
			"title": "HMS_Glowworm_(H92)",
			"content_type": "Wikipedia:Artículos_buenos",
			"geo_type": ""
			}
		},
		{ "type": "Feature",
		"geometry": {"type": "Point", "coordinates": [80.8, 6.8]},
		"properties": {
			"title": "Parque_nacional_de_las_Llanuras_de_Horton",
			"content_type": "Wikipedia:Artículos_buenos",
			"geo_type": "landmark"
			}
		},
		{ "type": "Feature",
		"geometry": {"type": "Point", "coordinates": [0.0102778, 51.0519]},
		"properties": {
			"title": "Observatorio_de_Isaac_Roberts",
			"content_type": "Wikipedia:Artículos_buenos",
			"geo_type": "landmark"
			}
		},
		{ "type": "Feature",
		"geometry": {"type": "Point", "coordinates": [15.6308, 60.6047]},
		"properties": {
			"title": "Gran_Montaña_de_Cobre_de_Falun",
			"content_type": "Wikipedia:Artículos_buenos",
			"geo_type": "landmark"
			}
		},
		{ "type": "Feature",
		"geometry": {"type": "Point", "coordinates": [18.6878, 43.3461]},
		"properties": {
			"title": "Batalla_del_Sutjeska",
			"content_type": "Wikipedia:Artículos_buenos",
			"geo_type": "event"
			}
		},
		{ "type": "Feature",
		"geometry": {"type": "Point", "coordinates": [-3.78856, 40.4308]},
		"properties": {
			"title": "Yacimiento_paleontológico_de_Somosaguas",
			"content_type": "Wikipedia:Artículos_buenos",
			"geo_type": "landmark"
			}
		},
		{ "type": "Feature",
		"geometry": {"type": "Point", "coordinates": [120.316, 36.068]},
		"properties": {
			"title": "Catedral_de_San_Miguel_de_Qingdao",
			"content_type": "Wikipedia:Artículos_buenos",
			"geo_type": "landmark"
			}
		},
		{ "type": "Feature",
		"geometry": {"type": "Point", "coordinates": [-3.0, 59.0]},
		"properties": {
			"title": "Orcadas_prehistóricas",
			"content_type": "Wikipedia:Artículos_buenos",
			"geo_type": "landmark"
			}
		},
		{ "type": "Feature",
		"geometry": {"type": "Point", "coordinates": [19.0333, 47.4833]},
		"properties": {
			"title": "República_Popular_de_Hungría_(1918-1919)",
			"content_type": "Wikipedia:Artículos_buenos",
			"geo_type": "country"
			}
		},
		{ "type": "Feature",
		"geometry": {"type": "Point", "coordinates": [-1.75902, 53.8042]},
		"properties": {
			"title": "Valley_Parade",
			"content_type": "Wikipedia:Artículos_buenos",
			"geo_type": "landmark"
			}
		},
		{ "type": "Feature",
		"geometry": {"type": "Point", "coordinates": [17.7625, 43.6542]},
		"properties": {
			"title": "Batalla_del_Neretva",
			"content_type": "Wikipedia:Artículos_buenos",
			"geo_type": "event"
			}
		},
		{ "type": "Feature",
		"geometry": {"type": "Point", "coordinates": [-77.0288, 38.9172]},
		"properties": {
			"title": "Ben's_Chili_Bowl",
			"content_type": "Wikipedia:Artículos_buenos",
			"geo_type": "landmark"
			}
		},
		{ "type": "Feature",
		"geometry": {"type": "Point", "coordinates": [-2.35028, 36.7683]},
		"properties": {
			"title": "Accidente_del_helicóptero_Helimer_207",
			"content_type": "Wikipedia:Artículos_buenos",
			"geo_type": "event"
			}
		},
		{ "type": "Feature",
		"geometry": {"type": "Point", "coordinates": [-107.672, 38.0233]},
		"properties": {
			"title": "Ouray",
			"content_type": "Wikipedia:Artículos_buenos",
			"geo_type": "city"
			}
		},
		{ "type": "Feature",
		"geometry": {"type": "Point", "coordinates": [-1.71789, 42.7916]},
		"properties": {
			"title": "Iglesia_de_Nuestra_Señora_de_la_Purificación_(Gazólaz)",
			"content_type": "Wikipedia:Artículos_buenos",
			"geo_type": "landmark"
			}
		},
		{ "type": "Feature",
		"geometry": {"type": "Point", "coordinates": [38.4936, -11.4283]},
		"properties": {
			"title": "Batalla_de_Negomano",
			"content_type": "Wikipedia:Artículos_buenos",
			"geo_type": "event"
			}
		},
		{ "type": "Feature",
		"geometry": {"type": "Point", "coordinates": [113.62, 29.8697]},
		"properties": {
			"title": "Batalla_de_los_Acantilados_Rojos",
			"content_type": "Wikipedia:Artículos_buenos",
			"geo_type": "event"
			}
		},
		{ "type": "Feature",
		"geometry": {"type": "Point", "coordinates": [-64.1889, -31.4383]},
		"properties": {
			"title": "Universidad_Nacional_de_Córdoba",
			"content_type": "Wikipedia:Artículos_buenos",
			"geo_type": "edu"
			}
		},
		{ "type": "Feature",
		"geometry": {"type": "Point", "coordinates": [-0.443, 49.186]},
		"properties": {
			"title": "Operación_Windsor",
			"content_type": "Wikipedia:Artículos_buenos",
			"geo_type": "event"
			}
		},
		{ "type": "Feature",
		"geometry": {"type": "Point", "coordinates": [9.13333, 42.35]},
		"properties": {
			"title": "Rally_de_Córcega_de_1986",
			"content_type": "Wikipedia:Artículos_buenos",
			"geo_type": ""
			}
		},
		{ "type": "Feature",
		"geometry": {"type": "Point", "coordinates": [172.74, -43.56]},
		"properties": {
			"title": "Terremoto_de_Christchurch_de_junio_de_2011",
			"content_type": "Wikipedia:Artículos_buenos",
			"geo_type": "landmark"
			}
		},
		{ "type": "Feature",
		"geometry": {"type": "Point", "coordinates": [-73.0635, -36.8219]},
		"properties": {
			"title": "Historia_de_Concepción_(mural)",
			"content_type": "Wikipedia:Artículos_buenos",
			"geo_type": "landmark"
			}
		},
		{ "type": "Feature",
		"geometry": {"type": "Point", "coordinates": [-68.8636, -32.8843]},
		"properties": {
			"title": "Club_Atlético_Gimnasia_y_Esgrima_(Mendoza)",
			"content_type": "Wikipedia:Artículos_buenos",
			"geo_type": "landmark"
			}
		},
		{ "type": "Feature",
		"geometry": {"type": "Point", "coordinates": [-105.967, 32.8871]},
		"properties": {
			"title": "Entierro_de_videojuegos_de_Atari",
			"content_type": "Wikipedia:Artículos_buenos",
			"geo_type": ""
			}
		},
		{ "type": "Feature",
		"geometry": {"type": "Point", "coordinates": [-73.9869, 40.6928]},
		"properties": {
			"title": "Edificio_de_la_Jefatura_de_bomberos_de_Brooklyn",
			"content_type": "Wikipedia:Artículos_buenos",
			"geo_type": "landmark"
			}
		},
		{ "type": "Feature",
		"geometry": {"type": "Point", "coordinates": [-73.0472, -36.823]},
		"properties": {
			"title": "Historia_de_la_medicina_y_la_farmacia_en_Chile",
			"content_type": "Wikipedia:Artículos_buenos",
			"geo_type": "landmark"
			}
		},
		{ "type": "Feature",
		"geometry": {"type": "Point", "coordinates": [-73.0434, -36.8264]},
		"properties": {
			"title": "Educación:_pasado,_presente_y_futuro",
			"content_type": "Wikipedia:Artículos_buenos",
			"geo_type": "landmark"
			}
		},
		{ "type": "Feature",
		"geometry": {"type": "Point", "coordinates": [2.44546, 41.5334]},
		"properties": {
			"title": "Accidente_ferroviario_de_Mataró_de_2012",
			"content_type": "Wikipedia:Artículos_buenos",
			"geo_type": "event"
			}
		},
		{ "type": "Feature",
		"geometry": {"type": "Point", "coordinates": [2.17, 41.3867]},
		"properties": {
			"title": "Esculturas_de_la_Plaza_de_Cataluña",
			"content_type": "Wikipedia:Artículos_buenos",
			"geo_type": "landmark"
			}
		},
		{ "type": "Feature",
		"geometry": {"type": "Point", "coordinates": [-6.967, 38.879]},
		"properties": {
			"title": "Asedio_de_Badajoz_(1658)",
			"content_type": "Wikipedia:Artículos_buenos",
			"geo_type": "event"
			}
		},
		{ "type": "Feature",
		"geometry": {"type": "Point", "coordinates": [26.0833, 44.3333]},
		"properties": {
			"title": "Matanza_de_Jilava",
			"content_type": "Wikipedia:Artículos_buenos",
			"geo_type": ""
			}
		},
		{ "type": "Feature",
		"geometry": {"type": "Point", "coordinates": [-4.67528, 40.613]},
		"properties": {
			"title": "Ávila",
			"content_type": "Wikipedia:Artículos_buenos",
			"geo_type": ""
			}
		},
		{ "type": "Feature",
		"geometry": {"type": "Point", "coordinates": [-5.39601, 36.1311]},
		"properties": {
			"title": "Bahía_de_Algeciras",
			"content_type": "Wikipedia:Artículos_buenos",
			"geo_type": "waterbody"
			}
		},
		{ "type": "Feature",
		"geometry": {"type": "Point", "coordinates": [120.989, 14.5994]},
		"properties": {
			"title": "Basílica_de_San_Sebastián_(Manila)",
			"content_type": "Wikipedia:Artículos_buenos",
			"geo_type": "landmark"
			}
		},
		{ "type": "Feature",
		"geometry": {"type": "Point", "coordinates": [12.4986, 41.8975]},
		"properties": {
			"title": "Basílica_de_Santa_María_la_Mayor",
			"content_type": "Wikipedia:Artículos_buenos",
			"geo_type": "landmark"
			}
		},
		{ "type": "Feature",
		"geometry": {"type": "Point", "coordinates": [27.5, -27.0]},
		"properties": {
			"title": "Cráter_de_Vredefort",
			"content_type": "Wikipedia:Artículos_buenos",
			"geo_type": "landmark"
			}
		},
		{ "type": "Feature",
		"geometry": {"type": "Point", "coordinates": [139.6, 36.75]},
		"properties": {
			"title": "Nikkō_(Tochigi)",
			"content_type": "Wikipedia:Artículos_buenos",
			"geo_type": "city"
			}
		},
		{ "type": "Feature",
		"geometry": {"type": "Point", "coordinates": [-58.4097, -34.6092]},
		"properties": {
			"title": "República_Cromañón",
			"content_type": "Wikipedia:Artículos_buenos",
			"geo_type": "event"
			}
		},
		{ "type": "Feature",
		"geometry": {"type": "Point", "coordinates": [18.6961, 45.5611]},
		"properties": {
			"title": "Tvrđa",
			"content_type": "Wikipedia:Artículos_buenos",
			"geo_type": "landmark"
			}
		},
		{ "type": "Feature",
		"geometry": {"type": "Point", "coordinates": [-5.81861, 43.0911]},
		"properties": {
			"title": "Santuario_de_la_Virgen_de_Bendueños",
			"content_type": "Wikipedia:Artículos_buenos",
			"geo_type": "landmark"
			}
		},
		{ "type": "Feature",
		"geometry": {"type": "Point", "coordinates": [-5.13972, 40.2217]},
		"properties": {
			"title": "Guisando",
			"content_type": "Wikipedia:Artículos_buenos",
			"geo_type": "city"
			}
		},
		{ "type": "Feature",
		"geometry": {"type": "Point", "coordinates": [-63.3617, 2.31806]},
		"properties": {
			"title": "Río_Orinoco",
			"content_type": "Wikipedia:Artículos_buenos",
			"geo_type": ""
			}
		},
		{ "type": "Feature",
		"geometry": {"type": "Point", "coordinates": [1.0706, 47.325]},
		"properties": {
			"title": "Castillo_de_Chenonceau",
			"content_type": "Wikipedia:Artículos_buenos",
			"geo_type": "landmark"
			}
		},
		{ "type": "Feature",
		"geometry": {"type": "Point", "coordinates": [-4.83111, 41.4125]},
		"properties": {
			"title": "Ventosa_de_la_Cuesta",
			"content_type": "Wikipedia:Artículos_buenos",
			"geo_type": "city"
			}
		},
		{ "type": "Feature",
		"geometry": {"type": "Point", "coordinates": [30.5167, 50.45]},
		"properties": {
			"title": "Hetmanato_(1918)",
			"content_type": "Wikipedia:Artículos_buenos",
			"geo_type": "country"
			}
		},
		{ "type": "Feature",
		"geometry": {"type": "Point", "coordinates": [-87.2972, 30.3478]},
		"properties": {
			"title": "Sitios_de_Pensacola",
			"content_type": "Wikipedia:Artículos_buenos",
			"geo_type": "event"
			}
		},
		{ "type": "Feature",
		"geometry": {"type": "Point", "coordinates": [-98.9833, 20.3667]},
		"properties": {
			"title": "Municipio_de_La_Paz_(estado_de_México)",
			"content_type": "Wikipedia:Artículos_buenos",
			"geo_type": "city"
			}
		},
		{ "type": "Feature",
		"geometry": {"type": "Point", "coordinates": [-0.566667, 49.3333]},
		"properties": {
			"title": "Batalla_de_Normandía",
			"content_type": "Wikipedia:Artículos_buenos",
			"geo_type": "event"
			}
		},
		{ "type": "Feature",
		"geometry": {"type": "Point", "coordinates": [-2.72583, 42.5781]},
		"properties": {
			"title": "Ermita_de_Santa_María_de_La_Piscina",
			"content_type": "Wikipedia:Artículos_buenos",
			"geo_type": "landmark"
			}
		},
		{ "type": "Feature",
		"geometry": {"type": "Point", "coordinates": [101.0, 35.0]},
		"properties": {
			"title": "Sitta_przewalskii",
			"content_type": "Wikipedia:Artículos_buenos",
			"geo_type": ""
			}
		},
		{ "type": "Feature",
		"geometry": {"type": "Point", "coordinates": [15.5578, 41.2156]},
		"properties": {
			"title": "Batalla_de_Ásculo_(279_a._C.)",
			"content_type": "Wikipedia:Artículos_buenos",
			"geo_type": "event"
			}
		},
		{ "type": "Feature",
		"geometry": {"type": "Point", "coordinates": [-89.2406, 13.6731]},
		"properties": {
			"title": "Antiguo_Cuscatlán",
			"content_type": "Wikipedia:Artículos_buenos",
			"geo_type": "city"
			}
		},
		{ "type": "Feature",
		"geometry": {"type": "Point", "coordinates": [-5.39601, 36.1311]},
		"properties": {
			"title": "Campaña_de_Algeciras_(1801)",
			"content_type": "Wikipedia:Artículos_buenos",
			"geo_type": "event"
			}
		},
		{ "type": "Feature",
		"geometry": {"type": "Point", "coordinates": [19.9166, 59.8416]},
		"properties": {
			"title": "Lågskär",
			"content_type": "Wikipedia:Artículos_buenos",
			"geo_type": "isle"
			}
		},
		{ "type": "Feature",
		"geometry": {"type": "Point", "coordinates": [-89.2, 14.6167]},
		"properties": {
			"title": "Esquipulas",
			"content_type": "Wikipedia:Artículos_buenos",
			"geo_type": "city"
			}
		},
		{ "type": "Feature",
		"geometry": {"type": "Point", "coordinates": [22.3522, 37.3497]},
		"properties": {
			"title": "Guerra_de_Cleómenes",
			"content_type": "Wikipedia:Artículos_buenos",
			"geo_type": "event"
			}
		},
		{ "type": "Feature",
		"geometry": {"type": "Point", "coordinates": [30.5167, 50.45]},
		"properties": {
			"title": "Directorio_de_Ucrania",
			"content_type": "Wikipedia:Artículos_buenos",
			"geo_type": "country"
			}
		},
		{ "type": "Feature",
		"geometry": {"type": "Point", "coordinates": [120.0, -70.0]},
		"properties": {
			"title": "Cráter_de_la_Tierra_de_Wilkes",
			"content_type": "Wikipedia:Artículos_buenos",
			"geo_type": ""
			}
		},
		{ "type": "Feature",
		"geometry": {"type": "Point", "coordinates": [-53.6478, -26.2542]},
		"properties": {
			"title": "Argentina",
			"content_type": "Wikipedia:Artículos_destacados",
			"geo_type": ""
			}
		},
		{ "type": "Feature",
		"geometry": {"type": "Point", "coordinates": [-6.06333, 42.4589]},
		"properties": {
			"title": "Astorga",
			"content_type": "Wikipedia:Artículos_destacados",
			"geo_type": "city"
			}
		},
		{ "type": "Feature",
		"geometry": {"type": "Point", "coordinates": [-5.98333, 37.3833]},
		"properties": {
			"title": "Andalucía",
			"content_type": "Wikipedia:Artículos_destacados",
			"geo_type": "city"
			}
		},
		{ "type": "Feature",
		"geometry": {"type": "Point", "coordinates": [-5.57094, 42.6007]},
		"properties": {
			"title": "Basílica_de_San_Isidoro_de_León",
			"content_type": "Wikipedia:Artículos_destacados",
			"geo_type": "landmark"
			}
		},
		{ "type": "Feature",
		"geometry": {"type": "Point", "coordinates": [-5.0, 57.0]},
		"properties": {
			"title": "Escocia",
			"content_type": "Wikipedia:Artículos_destacados",
			"geo_type": "city"
			}
		},
		{ "type": "Feature",
		"geometry": {"type": "Point", "coordinates": [-3.68333, 40.4333]},
		"properties": {
			"title": "Madrid",
			"content_type": "Wikipedia:Artículos_destacados",
			"geo_type": "city"
			}
		},
		{ "type": "Feature",
		"geometry": {"type": "Point", "coordinates": [-97.0, 55.0]},
		"properties": {
			"title": "Manitoba",
			"content_type": "Wikipedia:Artículos_destacados",
			"geo_type": "city"
			}
		},
		{ "type": "Feature",
		"geometry": {"type": "Point", "coordinates": [-85.0, 50.0]},
		"properties": {
			"title": "Ontario",
			"content_type": "Wikipedia:Artículos_destacados",
			"geo_type": "city"
			}
		},
		{ "type": "Feature",
		"geometry": {"type": "Point", "coordinates": [-4.72856, 41.652]},
		"properties": {
			"title": "Valladolid",
			"content_type": "Wikipedia:Artículos_destacados",
			"geo_type": "city"
			}
		},
		{ "type": "Feature",
		"geometry": {"type": "Point", "coordinates": [-5.65, 42.5842]},
		"properties": {
			"title": "León_(España)",
			"content_type": "Wikipedia:Artículos_destacados",
			"geo_type": ""
			}
		},
		{ "type": "Feature",
		"geometry": {"type": "Point", "coordinates": [-3.66667, 40.5]},
		"properties": {
			"title": "Comunidad_de_Madrid",
			"content_type": "Wikipedia:Artículos_destacados",
			"geo_type": "city"
			}
		},
		{ "type": "Feature",
		"geometry": {"type": "Point", "coordinates": [-2.95333, 43.2622]},
		"properties": {
			"title": "Bilbao",
			"content_type": "Wikipedia:Artículos_destacados",
			"geo_type": "city"
			}
		},
		{ "type": "Feature",
		"geometry": {"type": "Point", "coordinates": [-5.45, 36.1333]},
		"properties": {
			"title": "Algeciras",
			"content_type": "Wikipedia:Artículos_destacados",
			"geo_type": "city"
			}
		},
		{ "type": "Feature",
		"geometry": {"type": "Point", "coordinates": [-9.16667, 38.7167]},
		"properties": {
			"title": "Lisboa",
			"content_type": "Wikipedia:Artículos_destacados",
			"geo_type": "city"
			}
		},
		{ "type": "Feature",
		"geometry": {"type": "Point", "coordinates": [-16.6056, 28.2686]},
		"properties": {
			"title": "Tenerife",
			"content_type": "Wikipedia:Artículos_destacados",
			"geo_type": "isle"
			}
		},
		{ "type": "Feature",
		"geometry": {"type": "Point", "coordinates": [23.7262, 37.9714]},
		"properties": {
			"title": "Acrópolis_de_Atenas",
			"content_type": "Wikipedia:Artículos_destacados",
			"geo_type": "landmark"
			}
		},
		{ "type": "Feature",
		"geometry": {"type": "Point", "coordinates": [120.971, 14.5889]},
		"properties": {
			"title": "Filipinas",
			"content_type": "Wikipedia:Artículos_destacados",
			"geo_type": "city"
			}
		},
		{ "type": "Feature",
		"geometry": {"type": "Point", "coordinates": [-5.98333, 37.3833]},
		"properties": {
			"title": "Sevilla",
			"content_type": "Wikipedia:Artículos_destacados",
			"geo_type": "city"
			}
		},
		{ "type": "Feature",
		"geometry": {"type": "Point", "coordinates": [-88.3802, 41.2782]},
		"properties": {
			"title": "Illinois",
			"content_type": "Wikipedia:Artículos_destacados",
			"geo_type": "landmark"
			}
		},
		{ "type": "Feature",
		"geometry": {"type": "Point", "coordinates": [29.0, 41.0]},
		"properties": {
			"title": "Imperio_bizantino",
			"content_type": "Wikipedia:Artículos_destacados",
			"geo_type": "country"
			}
		},
		{ "type": "Feature",
		"geometry": {"type": "Point", "coordinates": [22.5061, 38.4828]},
		"properties": {
			"title": "Oráculo_de_Delfos",
			"content_type": "Wikipedia:Artículos_destacados",
			"geo_type": ""
			}
		},
		{ "type": "Feature",
		"geometry": {"type": "Point", "coordinates": [-74.7964, 10.9639]},
		"properties": {
			"title": "Barranquilla",
			"content_type": "Wikipedia:Artículos_destacados",
			"geo_type": "city"
			}
		},
		{ "type": "Feature",
		"geometry": {"type": "Point", "coordinates": [-3.59583, 37.2058]},
		"properties": {
			"title": "Granada",
			"content_type": "Wikipedia:Artículos_destacados",
			"geo_type": ""
			}
		},
		{ "type": "Feature",
		"geometry": {"type": "Point", "coordinates": [-3.62083, 43.4925]},
		"properties": {
			"title": "Cantabria",
			"content_type": "Wikipedia:Artículos_destacados",
			"geo_type": ""
			}
		},
		{ "type": "Feature",
		"geometry": {"type": "Point", "coordinates": [-61.0, 9.53333]},
		"properties": {
			"title": "Mar_Caribe",
			"content_type": "Wikipedia:Artículos_destacados",
			"geo_type": ""
			}
		},
		{ "type": "Feature",
		"geometry": {"type": "Point", "coordinates": [-118.25, 34.05]},
		"properties": {
			"title": "Los_Ángeles",
			"content_type": "Wikipedia:Artículos_destacados",
			"geo_type": "city"
			}
		},
		{ "type": "Feature",
		"geometry": {"type": "Point", "coordinates": [-72.5456, -13.1631]},
		"properties": {
			"title": "Machu_Picchu",
			"content_type": "Wikipedia:Artículos_destacados",
			"geo_type": "landmark"
			}
		},
		{ "type": "Feature",
		"geometry": {"type": "Point", "coordinates": [-117.0, 39.0]},
		"properties": {
			"title": "Nevada",
			"content_type": "Wikipedia:Artículos_destacados",
			"geo_type": "city"
			}
		},
		{ "type": "Feature",
		"geometry": {"type": "Point", "coordinates": [-79.4042, 43.6481]},
		"properties": {
			"title": "Toronto",
			"content_type": "Wikipedia:Artículos_destacados",
			"geo_type": "city"
			}
		},
		{ "type": "Feature",
		"geometry": {"type": "Point", "coordinates": [-122.433, 37.7667]},
		"properties": {
			"title": "San_Francisco_(California)",
			"content_type": "Wikipedia:Artículos_destacados",
			"geo_type": "city"
			}
		},
		{ "type": "Feature",
		"geometry": {"type": "Point", "coordinates": [-70.6503, -33.4378]},
		"properties": {
			"title": "Santiago_de_Chile",
			"content_type": "Wikipedia:Artículos_destacados",
			"geo_type": "city"
			}
		},
		{ "type": "Feature",
		"geometry": {"type": "Point", "coordinates": [72.8333, 18.9667]},
		"properties": {
			"title": "Bombay",
			"content_type": "Wikipedia:Artículos_destacados",
			"geo_type": "city"
			}
		},
		{ "type": "Feature",
		"geometry": {"type": "Point", "coordinates": [2.17444, 41.4036]},
		"properties": {
			"title": "Templo_Expiatorio_de_la_Sagrada_Familia",
			"content_type": "Wikipedia:Artículos_destacados",
			"geo_type": "landmark"
			}
		},
		{ "type": "Feature",
		"geometry": {"type": "Point", "coordinates": [22.5333, 38.8]},
		"properties": {
			"title": "Batalla_de_las_Termópilas",
			"content_type": "Wikipedia:Artículos_destacados",
			"geo_type": "event"
			}
		},
		{ "type": "Feature",
		"geometry": {"type": "Point", "coordinates": [-3.71667, 40.3]},
		"properties": {
			"title": "Getafe",
			"content_type": "Wikipedia:Artículos_destacados",
			"geo_type": "city"
			}
		},
		{ "type": "Feature",
		"geometry": {"type": "Point", "coordinates": [-4.41667, 36.7167]},
		"properties": {
			"title": "Málaga",
			"content_type": "Wikipedia:Artículos_destacados",
			"geo_type": "city"
			}
		},
		{ "type": "Feature",
		"geometry": {"type": "Point", "coordinates": [-1.6975, 40.3197]},
		"properties": {
			"title": "Tajo",
			"content_type": "Wikipedia:Artículos_destacados",
			"geo_type": "waterbody"
			}
		},
		{ "type": "Feature",
		"geometry": {"type": "Point", "coordinates": [-6.86667, 37.15]},
		"properties": {
			"title": "Provincia_de_Huelva",
			"content_type": "Wikipedia:Artículos_destacados",
			"geo_type": ""
			}
		},
		{ "type": "Feature",
		"geometry": {"type": "Point", "coordinates": [-86.2167, 39.9333]},
		"properties": {
			"title": "Indiana",
			"content_type": "Wikipedia:Artículos_destacados",
			"geo_type": "city"
			}
		},
		{ "type": "Feature",
		"geometry": {"type": "Point", "coordinates": [-94.0, 46.0]},
		"properties": {
			"title": "Minnesota",
			"content_type": "Wikipedia:Artículos_destacados",
			"geo_type": "city"
			}
		},
		{ "type": "Feature",
		"geometry": {"type": "Point", "coordinates": [-82.5, 40.5]},
		"properties": {
			"title": "Ohio",
			"content_type": "Wikipedia:Artículos_destacados",
			"geo_type": "city"
			}
		},
		{ "type": "Feature",
		"geometry": {"type": "Point", "coordinates": [24.745, 59.4372]},
		"properties": {
			"title": "Tallin",
			"content_type": "Wikipedia:Artículos_destacados",
			"geo_type": "city"
			}
		},