{ "type": "FeatureCollection",
	"features": [
		{ "type": "Feature",
		"geometry": {"type": "Point", "coordinates": [4.9, 52.3833]},
		"properties": {
			"title": "Amsterdam",
			"content_type": "Bon_article",
			"geo_type": "city"
			}
		},
		{ "type": "Feature",
		"geometry": {"type": "Point", "coordinates": [2.69806, 48.4019]},
		"properties": {
			"title": "Château_de_Fontainebleau",
			"content_type": "Bon_article",
			"geo_type": "landmark"
			}
		},
		{ "type": "Feature",
		"geometry": {"type": "Point", "coordinates": [174.45, -41.283]},
		"properties": {
			"title": "Nouvelle-Zélande",
			"content_type": "Bon_article",
			"geo_type": ""
			}
		},
		{ "type": "Feature",
		"geometry": {"type": "Point", "coordinates": [12.48, 41.89]},
		"properties": {
			"title": "Rome_antique",
			"content_type": "Bon_article",
			"geo_type": "country"
			}
		},
		{ "type": "Feature",
		"geometry": {"type": "Point", "coordinates": [-5.2955, 6.81]},
		"properties": {
			"title": "Yamoussoukro",
			"content_type": "Bon_article",
			"geo_type": "city"
			}
		},
		{ "type": "Feature",
		"geometry": {"type": "Point", "coordinates": [31.2544, 29.8494]},
		"properties": {
			"title": "Memphis_(Égypte)",
			"content_type": "Bon_article",
			"geo_type": "city"
			}
		},
		{ "type": "Feature",
		"geometry": {"type": "Point", "coordinates": [-1.09167, 49.1144]},
		"properties": {
			"title": "Saint-Lô",
			"content_type": "Bon_article",
			"geo_type": "city"
			}
		},
		{ "type": "Feature",
		"geometry": {"type": "Point", "coordinates": [6.86472, 45.8326]},
		"properties": {
			"title": "Mont_Blanc",
			"content_type": "Bon_article",
			"geo_type": "mountain"
			}
		},
		{ "type": "Feature",
		"geometry": {"type": "Point", "coordinates": [3.06333, 50.6372]},
		"properties": {
			"title": "Lille",
			"content_type": "Bon_article",
			"geo_type": "city"
			}
		},
		{ "type": "Feature",
		"geometry": {"type": "Point", "coordinates": [-1.14996, 46.16]},
		"properties": {
			"title": "La_Rochelle",
			"content_type": "Bon_article",
			"geo_type": "city"
			}
		},
		{ "type": "Feature",
		"geometry": {"type": "Point", "coordinates": [-1.625, 49.6389]},
		"properties": {
			"title": "Cherbourg-Octeville",
			"content_type": "Bon_article",
			"geo_type": "city"
			}
		},
		{ "type": "Feature",
		"geometry": {"type": "Point", "coordinates": [-151.007, 63.0695]},
		"properties": {
			"title": "Mont_McKinley",
			"content_type": "Bon_article",
			"geo_type": "mountain"
			}
		},
		{ "type": "Feature",
		"geometry": {"type": "Point", "coordinates": [-52.6503, 5.15972]},
		"properties": {
			"title": "Kourou",
			"content_type": "Bon_article",
			"geo_type": "city"
			}
		},
		{ "type": "Feature",
		"geometry": {"type": "Point", "coordinates": [116.388, 39.9035]},
		"properties": {
			"title": "Pékin",
			"content_type": "Bon_article",
			"geo_type": "city"
			}
		},
		{ "type": "Feature",
		"geometry": {"type": "Point", "coordinates": [116.392, 39.9033]},
		"properties": {
			"title": "Manifestations_de_la_place_Tian'anmen",
			"content_type": "Bon_article",
			"geo_type": "event"
			}
		},
		{ "type": "Feature",
		"geometry": {"type": "Point", "coordinates": [4.84222, 45.7597]},
		"properties": {
			"title": "Lugdunum",
			"content_type": "Bon_article",
			"geo_type": "landmark"
			}
		},
		{ "type": "Feature",
		"geometry": {"type": "Point", "coordinates": [3.50095, 50.3699]},
		"properties": {
			"title": "Anzin",
			"content_type": "Bon_article",
			"geo_type": "city"
			}
		},
		{ "type": "Feature",
		"geometry": {"type": "Point", "coordinates": [3.96, 49.0403]},
		"properties": {
			"title": "Épernay",
			"content_type": "Bon_article",
			"geo_type": "city"
			}
		},
		{ "type": "Feature",
		"geometry": {"type": "Point", "coordinates": [2.39588, 50.6384]},
		"properties": {
			"title": "Aire-sur-la-Lys",
			"content_type": "Bon_article",
			"geo_type": "city"
			}
		},
		{ "type": "Feature",
		"geometry": {"type": "Point", "coordinates": [3.23556, 50.1767]},
		"properties": {
			"title": "Cambrai",
			"content_type": "Bon_article",
			"geo_type": "city"
			}
		},
		{ "type": "Feature",
		"geometry": {"type": "Point", "coordinates": [36.498, 34.5555]},
		"properties": {
			"title": "Bataille_de_Qadech",
			"content_type": "Bon_article",
			"geo_type": "landmark"
			}
		},
		{ "type": "Feature",
		"geometry": {"type": "Point", "coordinates": [-0.214059, 51.4337]},
		"properties": {
			"title": "Tournoi_de_Wimbledon",
			"content_type": "Bon_article",
			"geo_type": "landmark"
			}
		},
		{ "type": "Feature",
		"geometry": {"type": "Point", "coordinates": [-8.14333, 38.725]},
		"properties": {
			"title": "Ordre_souverain_militaire_hospitalier_de_Saint-Jean_de_Jérusalem,_de_Rhodes_et_de_Malte",
			"content_type": "Bon_article",
			"geo_type": ""
			}
		},
		{ "type": "Feature",
		"geometry": {"type": "Point", "coordinates": [2.0938, 48.8989]},
		"properties": {
			"title": "Saint-Germain-en-Laye",
			"content_type": "Bon_article",
			"geo_type": "city"
			}
		},
		{ "type": "Feature",
		"geometry": {"type": "Point", "coordinates": [2.39278, 48.7875]},
		"properties": {
			"title": "Vitry-sur-Seine",
			"content_type": "Bon_article",
			"geo_type": "city"
			}
		},
		{ "type": "Feature",
		"geometry": {"type": "Point", "coordinates": [-122.283, 37.8327]},
		"properties": {
			"title": "Pixar_Animation_Studios",
			"content_type": "Bon_article",
			"geo_type": "landmark"
			}
		},
		{ "type": "Feature",
		"geometry": {"type": "Point", "coordinates": [6.37248, 45.6644]},
		"properties": {
			"title": "Jeux_olympiques_d'hiver_de_1992",
			"content_type": "Bon_article",
			"geo_type": "city"
			}
		},
		{ "type": "Feature",
		"geometry": {"type": "Point", "coordinates": [3.78067, 50.6301]},
		"properties": {
			"title": "Ath",
			"content_type": "Bon_article",
			"geo_type": "city"
			}
		},
		{ "type": "Feature",
		"geometry": {"type": "Point", "coordinates": [22.4314, 37.0742]},
		"properties": {
			"title": "Sparte",
			"content_type": "Bon_article",
			"geo_type": "city"
			}
		},
		{ "type": "Feature",
		"geometry": {"type": "Point", "coordinates": [-74.0056, 40.7325]},
		"properties": {
			"title": "Friends",
			"content_type": "Bon_article",
			"geo_type": ""
			}
		},
		{ "type": "Feature",
		"geometry": {"type": "Point", "coordinates": [2.64483, 48.8756]},
		"properties": {
			"title": "LGV_Est_européenne",
			"content_type": "Bon_article",
			"geo_type": "landmark"
			}
		},
		{ "type": "Feature",
		"geometry": {"type": "Point", "coordinates": [3.47583, 43.3108]},
		"properties": {
			"title": "Agde",
			"content_type": "Bon_article",
			"geo_type": "city"
			}
		},
		{ "type": "Feature",
		"geometry": {"type": "Point", "coordinates": [-113.521, 40.365]},
		"properties": {
			"title": "Stardust_(sonde_spatiale)",
			"content_type": "Bon_article",
			"geo_type": ""
			}
		},
		{ "type": "Feature",
		"geometry": {"type": "Point", "coordinates": [-56.1528, -34.8946]},
		"properties": {
			"title": "Coupe_du_monde_de_football_de_1930",
			"content_type": "Bon_article",
			"geo_type": "landmark"
			}
		},
		{ "type": "Feature",
		"geometry": {"type": "Point", "coordinates": [-0.649256, 35.7028]},
		"properties": {
			"title": "Oran",
			"content_type": "Bon_article",
			"geo_type": "city"
			}
		},
		{ "type": "Feature",
		"geometry": {"type": "Point", "coordinates": [2.45635, 48.8496]},
		"properties": {
			"title": "Ligne_1_du_métro_de_Paris",
			"content_type": "Bon_article",
			"geo_type": "landmark"
			}
		},
		{ "type": "Feature",
		"geometry": {"type": "Point", "coordinates": [11.5492, 48.1325]},
		"properties": {
			"title": "Oktoberfest",
			"content_type": "Bon_article",
			"geo_type": "landmark"
			}
		},
		{ "type": "Feature",
		"geometry": {"type": "Point", "coordinates": [-4.0266, 5.3364]},
		"properties": {
			"title": "Abidjan",
			"content_type": "Bon_article",
			"geo_type": "city"
			}
		},
		{ "type": "Feature",
		"geometry": {"type": "Point", "coordinates": [2.445, 48.9233]},
		"properties": {
			"title": "Drancy",
			"content_type": "Bon_article",
			"geo_type": "city"
			}
		},
		{ "type": "Feature",
		"geometry": {"type": "Point", "coordinates": [2.35793, 48.8761]},
		"properties": {
			"title": "Ligne_4_du_métro_de_Paris",
			"content_type": "Bon_article",
			"geo_type": "landmark"
			}
		},
		{ "type": "Feature",
		"geometry": {"type": "Point", "coordinates": [1.81611, 48.9564]},
		"properties": {
			"title": "Épône",
			"content_type": "Bon_article",
			"geo_type": "city"
			}
		},
		{ "type": "Feature",
		"geometry": {"type": "Point", "coordinates": [2.32619, 48.8756]},
		"properties": {
			"title": "Ligne_14_du_métro_de_Paris",
			"content_type": "Bon_article",
			"geo_type": "landmark"
			}
		},
		{ "type": "Feature",
		"geometry": {"type": "Point", "coordinates": [2.3425, 48.8851]},
		"properties": {
			"title": "Funiculaire_de_Montmartre",
			"content_type": "Bon_article",
			"geo_type": ""
			}
		},
		{ "type": "Feature",
		"geometry": {"type": "Point", "coordinates": [0.76889, 45.7569]},
		"properties": {
			"title": "Charente_(fleuve)",
			"content_type": "Bon_article",
			"geo_type": "landmark"
			}
		},
		{ "type": "Feature",
		"geometry": {"type": "Point", "coordinates": [2.14639, 43.9289]},
		"properties": {
			"title": "Albi",
			"content_type": "Bon_article",
			"geo_type": "city"
			}
		},
		{ "type": "Feature",
		"geometry": {"type": "Point", "coordinates": [-2.25, 53.4833]},
		"properties": {
			"title": "Manchester",
			"content_type": "Bon_article",
			"geo_type": "city"
			}
		},
		{ "type": "Feature",
		"geometry": {"type": "Point", "coordinates": [10.8729, 44.5312]},
		"properties": {
			"title": "Ferrari_(entreprise)",
			"content_type": "Bon_article",
			"geo_type": ""
			}
		},
		{ "type": "Feature",
		"geometry": {"type": "Point", "coordinates": [5.22389, 43.7961]},
		"properties": {
			"title": "Massif_du_Luberon",
			"content_type": "Bon_article",
			"geo_type": "mountain"
			}
		},
		{ "type": "Feature",
		"geometry": {"type": "Point", "coordinates": [36.7986, 35.7981]},
		"properties": {
			"title": "Ebla",
			"content_type": "Bon_article",
			"geo_type": "landmark"
			}
		},
		{ "type": "Feature",
		"geometry": {"type": "Point", "coordinates": [14.506, 46.0514]},
		"properties": {
			"title": "Ljubljana",
			"content_type": "Bon_article",
			"geo_type": "city"
			}
		},
		{ "type": "Feature",
		"geometry": {"type": "Point", "coordinates": [-122.317, 47.6]},
		"properties": {
			"title": "Seattle",
			"content_type": "Bon_article",
			"geo_type": "city"
			}
		},
		{ "type": "Feature",
		"geometry": {"type": "Point", "coordinates": [176.541, -40.3462]},
		"properties": {
			"title": "Taumata­whakatangihanga­koauau­o­tamatea­turi­pukaka­piki­maungah­oronuku­pokai­whenuaki­tanatahu",
			"content_type": "Bon_article",
			"geo_type": "mountain"
			}
		},
		{ "type": "Feature",
		"geometry": {"type": "Point", "coordinates": [-1.40472, 47.9364]},
		"properties": {
			"title": "La_Roche-aux-Fées",
			"content_type": "Bon_article",
			"geo_type": ""
			}
		},
		{ "type": "Feature",
		"geometry": {"type": "Point", "coordinates": [-0.6333, 45.7464]},
		"properties": {
			"title": "Saintes",
			"content_type": "Bon_article",
			"geo_type": "city"
			}
		},
		{ "type": "Feature",
		"geometry": {"type": "Point", "coordinates": [3.2324, 47.5537]},
		"properties": {
			"title": "Sougères-en-Puisaye",
			"content_type": "Bon_article",
			"geo_type": ""
			}
		},
		{ "type": "Feature",
		"geometry": {"type": "Point", "coordinates": [-17.2727, 64.4081]},
		"properties": {
			"title": "Grímsvötn",
			"content_type": "Bon_article",
			"geo_type": "mountain"
			}
		},
		{ "type": "Feature",
		"geometry": {"type": "Point", "coordinates": [131.036, -25.3451]},
		"properties": {
			"title": "Uluru",
			"content_type": "Bon_article",
			"geo_type": "mountain"
			}
		},
		{ "type": "Feature",
		"geometry": {"type": "Point", "coordinates": [0.766551, 49.5296]},
		"properties": {
			"title": "Abbaye_Saint-Wandrille_de_Fontenelle",
			"content_type": "Bon_article",
			"geo_type": "landmark"
			}
		},
		{ "type": "Feature",
		"geometry": {"type": "Point", "coordinates": [1.6333, 49.0833]},
		"properties": {
			"title": "La_Roche-Guyon",
			"content_type": "Bon_article",
			"geo_type": "city"
			}
		},
		{ "type": "Feature",
		"geometry": {"type": "Point", "coordinates": [42.4392, 43.355]},
		"properties": {
			"title": "Elbrouz",
			"content_type": "Bon_article",
			"geo_type": "mountain"
			}
		},
		{ "type": "Feature",
		"geometry": {"type": "Point", "coordinates": [2.1017, 49.0516]},
		"properties": {
			"title": "Pontoise",
			"content_type": "Bon_article",
			"geo_type": "city"
			}
		},
		{ "type": "Feature",
		"geometry": {"type": "Point", "coordinates": [0.0, 90.0]},
		"properties": {
			"title": "Pôle_Nord",
			"content_type": "Bon_article",
			"geo_type": ""
			}
		},
		{ "type": "Feature",
		"geometry": {"type": "Point", "coordinates": [2.20911, 49.1138]},
		"properties": {
			"title": "Parmain",
			"content_type": "Bon_article",
			"geo_type": "city"
			}
		},
		{ "type": "Feature",
		"geometry": {"type": "Point", "coordinates": [-3.36128, 47.7456]},
		"properties": {
			"title": "Festival_interceltique_de_Lorient",
			"content_type": "Bon_article",
			"geo_type": "event"
			}
		},
		{ "type": "Feature",
		"geometry": {"type": "Point", "coordinates": [9.83614, 46.4951]},
		"properties": {
			"title": "Jeux_olympiques_d'hiver_de_1928",
			"content_type": "Bon_article",
			"geo_type": "city"
			}
		},
		{ "type": "Feature",
		"geometry": {"type": "Point", "coordinates": [-73.9853, 44.2856]},
		"properties": {
			"title": "Jeux_olympiques_d'hiver_de_1932",
			"content_type": "Bon_article",
			"geo_type": "city"
			}
		},
		{ "type": "Feature",
		"geometry": {"type": "Point", "coordinates": [9.83832, 46.4978]},
		"properties": {
			"title": "Jeux_olympiques_d'hiver_de_1948",
			"content_type": "Bon_article",
			"geo_type": "city"
			}
		},
		{ "type": "Feature",
		"geometry": {"type": "Point", "coordinates": [12.1333, 46.5333]},
		"properties": {
			"title": "Jeux_olympiques_d'hiver_de_1956",
			"content_type": "Bon_article",
			"geo_type": "city"
			}
		},
		{ "type": "Feature",
		"geometry": {"type": "Point", "coordinates": [-120.234, 39.1963]},
		"properties": {
			"title": "Jeux_olympiques_d'hiver_de_1960",
			"content_type": "Bon_article",
			"geo_type": "city"
			}
		},
		{ "type": "Feature",
		"geometry": {"type": "Point", "coordinates": [-73.9631, 40.7794]},
		"properties": {
			"title": "Metropolitan_Museum_of_Art",
			"content_type": "Bon_article",
			"geo_type": "landmark"
			}
		},
		{ "type": "Feature",
		"geometry": {"type": "Point", "coordinates": [11.399, 47.248]},
		"properties": {
			"title": "Jeux_olympiques_d'hiver_de_1964",
			"content_type": "Bon_article",
			"geo_type": "city"
			}
		},
		{ "type": "Feature",
		"geometry": {"type": "Point", "coordinates": [86.9253, 27.9883]},
		"properties": {
			"title": "Everest",
			"content_type": "Bon_article",
			"geo_type": "mountain"
			}
		},
		{ "type": "Feature",
		"geometry": {"type": "Point", "coordinates": [6.71833, 44.8936]},
		"properties": {
			"title": "Durance",
			"content_type": "Bon_article",
			"geo_type": "landmark"
			}
		},
		{ "type": "Feature",
		"geometry": {"type": "Point", "coordinates": [-122.117, 42.9333]},
		"properties": {
			"title": "Parc_national_de_Crater_Lake",
			"content_type": "Bon_article",
			"geo_type": "landmark"
			}
		},
		{ "type": "Feature",
		"geometry": {"type": "Point", "coordinates": [4.95, 47.167]},
		"properties": {
			"title": "Vignoble_de_Bourgogne",
			"content_type": "Bon_article",
			"geo_type": "landmark"
			}
		},
		{ "type": "Feature",
		"geometry": {"type": "Point", "coordinates": [-4.37278, 47.7983]},
		"properties": {
			"title": "Phare_d'Eckmühl",
			"content_type": "Bon_article",
			"geo_type": "landmark"
			}
		},
		{ "type": "Feature",
		"geometry": {"type": "Point", "coordinates": [0.1083, 49.4869]},
		"properties": {
			"title": "Cathédrale_Notre-Dame_du_Havre",
			"content_type": "Bon_article",
			"geo_type": "landmark"
			}
		},
		{ "type": "Feature",
		"geometry": {"type": "Point", "coordinates": [1.8795, 50.9533]},
		"properties": {
			"title": "Université_du_Littoral_Côte_d'Opale",
			"content_type": "Bon_article",
			"geo_type": "edu"
			}
		},
		{ "type": "Feature",
		"geometry": {"type": "Point", "coordinates": [21.2575, 48.7211]},
		"properties": {
			"title": "Košice",
			"content_type": "Bon_article",
			"geo_type": "city"
			}
		},
		{ "type": "Feature",
		"geometry": {"type": "Point", "coordinates": [-123.114, 49.2611]},
		"properties": {
			"title": "Jeux_olympiques_d'hiver_de_2010",
			"content_type": "Bon_article",
			"geo_type": "city"
			}
		},
		{ "type": "Feature",
		"geometry": {"type": "Point", "coordinates": [1.48111, 43.5653]},
		"properties": {
			"title": "École_nationale_de_l'aviation_civile",
			"content_type": "Bon_article",
			"geo_type": "edu"
			}
		},
		{ "type": "Feature",
		"geometry": {"type": "Point", "coordinates": [23.7362, 37.9753]},
		"properties": {
			"title": "Jeux_olympiques_d'été_de_1896",
			"content_type": "Bon_article",
			"geo_type": "city"
			}
		},
		{ "type": "Feature",
		"geometry": {"type": "Point", "coordinates": [0.721667, 49.2325]},
		"properties": {
			"title": "Abbaye_Notre-Dame_du_Bec",
			"content_type": "Bon_article",
			"geo_type": "landmark"
			}
		},
		{ "type": "Feature",
		"geometry": {"type": "Point", "coordinates": [3.0942, 45.8904]},
		"properties": {
			"title": "Abbaye_de_Mozac",
			"content_type": "Bon_article",
			"geo_type": "landmark"
			}
		},
		{ "type": "Feature",
		"geometry": {"type": "Point", "coordinates": [-93.2642, 44.9803]},
		"properties": {
			"title": "Minneapolis",
			"content_type": "Bon_article",
			"geo_type": "city"
			}
		},
		{ "type": "Feature",
		"geometry": {"type": "Point", "coordinates": [1.2674, 45.8362]},
		"properties": {
			"title": "Gare_de_Limoges-Bénédictins",
			"content_type": "Bon_article",
			"geo_type": "railwaystation"
			}
		},
		{ "type": "Feature",
		"geometry": {"type": "Point", "coordinates": [31.134, 29.979]},
		"properties": {
			"title": "Complexe_funéraire_de_Khéops",
			"content_type": "Bon_article",
			"geo_type": "landmark"
			}
		},
		{ "type": "Feature",
		"geometry": {"type": "Point", "coordinates": [31.2089, 29.79]},
		"properties": {
			"title": "Pyramide_rhomboïdale",
			"content_type": "Bon_article",
			"geo_type": "landmark"
			}
		},
		{ "type": "Feature",
		"geometry": {"type": "Point", "coordinates": [6.2953, 45.7464]},
		"properties": {
			"title": "Faverges",
			"content_type": "Bon_article",
			"geo_type": "city"
			}
		},
		{ "type": "Feature",
		"geometry": {"type": "Point", "coordinates": [5.39592, 43.2698]},
		"properties": {
			"title": "Stade_Vélodrome",
			"content_type": "Bon_article",
			"geo_type": ""
			}
		},
		{ "type": "Feature",
		"geometry": {"type": "Point", "coordinates": [-4.499, 48.3988]},
		"properties": {
			"title": "Université_de_Bretagne_occidentale",
			"content_type": "Bon_article",
			"geo_type": "edu"
			}
		},
		{ "type": "Feature",
		"geometry": {"type": "Point", "coordinates": [-73.9753, 40.7517]},
		"properties": {
			"title": "Chrysler_Building",
			"content_type": "Bon_article",
			"geo_type": ""
			}
		},
		{ "type": "Feature",
		"geometry": {"type": "Point", "coordinates": [40.37, -22.37]},
		"properties": {
			"title": "Île_Europa",
			"content_type": "Bon_article",
			"geo_type": "isle"
			}
		},
		{ "type": "Feature",
		"geometry": {"type": "Point", "coordinates": [4.88055, 45.7201]},
		"properties": {
			"title": "Football_Club_de_Lyon",
			"content_type": "Bon_article",
			"geo_type": ""
			}
		},
		{ "type": "Feature",
		"geometry": {"type": "Point", "coordinates": [2.1667, 49.0667]},
		"properties": {
			"title": "Auvers-sur-Oise",
			"content_type": "Bon_article",
			"geo_type": "city"
			}
		},
		{ "type": "Feature",
		"geometry": {"type": "Point", "coordinates": [28.9769, 41.0167]},
		"properties": {
			"title": "Chute_de_Constantinople",
			"content_type": "Bon_article",
			"geo_type": "landmark"
			}
		},
		{ "type": "Feature",
		"geometry": {"type": "Point", "coordinates": [-1.21, 48.12]},
		"properties": {
			"title": "Vitré_(Ille-et-Vilaine)",
			"content_type": "Bon_article",
			"geo_type": "city"
			}
		},
		{ "type": "Feature",
		"geometry": {"type": "Point", "coordinates": [110.204, -7.60778]},
		"properties": {
			"title": "Borobudur",
			"content_type": "Bon_article",
			"geo_type": "landmark"
			}
		},
		{ "type": "Feature",
		"geometry": {"type": "Point", "coordinates": [139.762, 35.7133]},
		"properties": {
			"title": "Université_de_Tokyo",
			"content_type": "Bon_article",
			"geo_type": "edu"
			}
		},
		{ "type": "Feature",
		"geometry": {"type": "Point", "coordinates": [139.719, 35.7092]},
		"properties": {
			"title": "Université_Waseda",
			"content_type": "Bon_article",
			"geo_type": "edu"
			}
		},
		{ "type": "Feature",
		"geometry": {"type": "Point", "coordinates": [-70.0111, -32.6533]},
		"properties": {
			"title": "Aconcagua",
			"content_type": "Bon_article",
			"geo_type": "mountain"
			}
		},
		{ "type": "Feature",
		"geometry": {"type": "Point", "coordinates": [-1.59167, 43.4381]},
		"properties": {
			"title": "Bidart",
			"content_type": "Bon_article",
			"geo_type": "city"
			}
		},
		{ "type": "Feature",
		"geometry": {"type": "Point", "coordinates": [-58.3647, -34.6356]},
		"properties": {
			"title": "Club_Atlético_Boca_Juniors",
			"content_type": "Bon_article",
			"geo_type": "landmark"
			}
		},
		{ "type": "Feature",
		"geometry": {"type": "Point", "coordinates": [34.6153, 40.0197]},
		"properties": {
			"title": "Hattusa",
			"content_type": "Bon_article",
			"geo_type": "landmark"
			}
		},
		{ "type": "Feature",
		"geometry": {"type": "Point", "coordinates": [-123.983, 41.1667]},
		"properties": {
			"title": "Parc_national_de_Redwood",
			"content_type": "Bon_article",
			"geo_type": "landmark"
			}
		},
		{ "type": "Feature",
		"geometry": {"type": "Point", "coordinates": [-111.167, 38.15]},
		"properties": {
			"title": "Parc_national_de_Capitol_Reef",
			"content_type": "Bon_article",
			"geo_type": "landmark"
			}
		},
		{ "type": "Feature",
		"geometry": {"type": "Point", "coordinates": [-121.505, 40.488]},
		"properties": {
			"title": "Parc_national_volcanique_de_Lassen",
			"content_type": "Bon_article",
			"geo_type": "landmark"
			}
		},
		{ "type": "Feature",
		"geometry": {"type": "Point", "coordinates": [-110.5, 32.25]},
		"properties": {
			"title": "Parc_national_de_Saguaro",
			"content_type": "Bon_article",
			"geo_type": "landmark"
			}
		},
		{ "type": "Feature",
		"geometry": {"type": "Point", "coordinates": [-67.2318, 48.4921]},
		"properties": {
			"title": "La_Matapédia",
			"content_type": "Bon_article",
			"geo_type": "city"
			}
		},
		{ "type": "Feature",
		"geometry": {"type": "Point", "coordinates": [-121.76, 46.853]},
		"properties": {
			"title": "Mont_Rainier",
			"content_type": "Bon_article",
			"geo_type": "mountain"
			}
		},
		{ "type": "Feature",
		"geometry": {"type": "Point", "coordinates": [-64.9497, 47.7656]},
		"properties": {
			"title": "Caraquet",
			"content_type": "Bon_article",
			"geo_type": "city"
			}
		},
		{ "type": "Feature",
		"geometry": {"type": "Point", "coordinates": [162.333, -16.2667]},
		"properties": {
			"title": "Bataille_de_la_mer_de_Corail",
			"content_type": "Bon_article",
			"geo_type": "landmark"
			}
		},
		{ "type": "Feature",
		"geometry": {"type": "Point", "coordinates": [15.6144, 44.8778]},
		"properties": {
			"title": "Parc_national_des_lacs_de_Plitvice",
			"content_type": "Bon_article",
			"geo_type": "landmark"
			}
		},
		{ "type": "Feature",
		"geometry": {"type": "Point", "coordinates": [2.42556, 48.9353]},
		"properties": {
			"title": "Le_Bourget_(Seine-Saint-Denis)",
			"content_type": "Bon_article",
			"geo_type": "city"
			}
		},
		{ "type": "Feature",
		"geometry": {"type": "Point", "coordinates": [-2.96083, 53.4308]},
		"properties": {
			"title": "Anfield",
			"content_type": "Bon_article",
			"geo_type": ""
			}
		},
		{ "type": "Feature",
		"geometry": {"type": "Point", "coordinates": [-2.29121, 53.4631]},
		"properties": {
			"title": "Old_Trafford",
			"content_type": "Bon_article",
			"geo_type": ""
			}
		},
		{ "type": "Feature",
		"geometry": {"type": "Point", "coordinates": [-67.6833, 48.5667]},
		"properties": {
			"title": "Sayabec",
			"content_type": "Bon_article",
			"geo_type": "city"
			}
		},
		{ "type": "Feature",
		"geometry": {"type": "Point", "coordinates": [45.6365, 31.3244]},
		"properties": {
			"title": "Uruk",
			"content_type": "Bon_article",
			"geo_type": "landmark"
			}
		},
		{ "type": "Feature",
		"geometry": {"type": "Point", "coordinates": [135.781, 35.0261]},
		"properties": {
			"title": "Université_de_Kyoto",
			"content_type": "Bon_article",
			"geo_type": "edu"
			}
		},
		{ "type": "Feature",
		"geometry": {"type": "Point", "coordinates": [-85.5339, -78.5253]},
		"properties": {
			"title": "Massif_Vinson",
			"content_type": "Bon_article",
			"geo_type": "mountain"
			}
		},
		{ "type": "Feature",
		"geometry": {"type": "Point", "coordinates": [148.263, -36.4561]},
		"properties": {
			"title": "Mont_Kosciuszko",
			"content_type": "Bon_article",
			"geo_type": "mountain"
			}
		},
		{ "type": "Feature",
		"geometry": {"type": "Point", "coordinates": [-81.6697, 41.4822]},
		"properties": {
			"title": "Cleveland",
			"content_type": "Bon_article",
			"geo_type": "city"
			}
		},
		{ "type": "Feature",
		"geometry": {"type": "Point", "coordinates": [5.3733, 43.2924]},
		"properties": {
			"title": "Arsenal_des_galères",
			"content_type": "Bon_article",
			"geo_type": ""
			}
		},
		{ "type": "Feature",
		"geometry": {"type": "Point", "coordinates": [-72.9028, 41.6488]},
		"properties": {
			"title": "ESPN",
			"content_type": "Bon_article",
			"geo_type": "city"
			}
		},
		{ "type": "Feature",
		"geometry": {"type": "Point", "coordinates": [8.70639, 49.4103]},
		"properties": {
			"title": "Université_de_Heidelberg",
			"content_type": "Bon_article",
			"geo_type": "edu"
			}
		},
		{ "type": "Feature",
		"geometry": {"type": "Point", "coordinates": [6.63083, 46.3794]},
		"properties": {
			"title": "Saint-Paul-en-Chablais",
			"content_type": "Bon_article",
			"geo_type": "city"
			}
		},
		{ "type": "Feature",
		"geometry": {"type": "Point", "coordinates": [-2.97028, 56.4642]},
		"properties": {
			"title": "Dundee",
			"content_type": "Bon_article",
			"geo_type": "city"
			}
		},
		{ "type": "Feature",
		"geometry": {"type": "Point", "coordinates": [120.35, 15.13]},
		"properties": {
			"title": "Pinatubo",
			"content_type": "Bon_article",
			"geo_type": "mountain"
			}
		},
		{ "type": "Feature",
		"geometry": {"type": "Point", "coordinates": [-72.2883, 43.7033]},
		"properties": {
			"title": "Dartmouth_College",
			"content_type": "Bon_article",
			"geo_type": "edu"
			}
		},
		{ "type": "Feature",
		"geometry": {"type": "Point", "coordinates": [-66.7135, 47.9937]},
		"properties": {
			"title": "Atholville",
			"content_type": "Bon_article",
			"geo_type": "city"
			}
		},
		{ "type": "Feature",
		"geometry": {"type": "Point", "coordinates": [-1.67627, 47.0958]},
		"properties": {
			"title": "Lac_de_Grand-Lieu",
			"content_type": "Bon_article",
			"geo_type": "waterbody"
			}
		},
		{ "type": "Feature",
		"geometry": {"type": "Point", "coordinates": [-68.7833, 48.35]},
		"properties": {
			"title": "Parc_national_du_Bic",
			"content_type": "Bon_article",
			"geo_type": "landmark"
			}
		},
		{ "type": "Feature",
		"geometry": {"type": "Point", "coordinates": [2.24358, 50.7051]},
		"properties": {
			"title": "Coupole_d'Helfaut",
			"content_type": "Bon_article",
			"geo_type": ""
			}
		},
		{ "type": "Feature",
		"geometry": {"type": "Point", "coordinates": [46.4167, -9.41667]},
		"properties": {
			"title": "Aldabra",
			"content_type": "Bon_article",
			"geo_type": "isle"
			}
		},
		{ "type": "Feature",
		"geometry": {"type": "Point", "coordinates": [5.0045, 45.8481]},
		"properties": {
			"title": "Beynost",
			"content_type": "Bon_article",
			"geo_type": ""
			}
		},
		{ "type": "Feature",
		"geometry": {"type": "Point", "coordinates": [4.98435, 45.8301]},
		"properties": {
			"title": "Saint-Maurice-de-Beynost",
			"content_type": "Bon_article",
			"geo_type": ""
			}
		},
		{ "type": "Feature",
		"geometry": {"type": "Point", "coordinates": [5.00547, 45.8056]},
		"properties": {
			"title": "Thil_(Ain)",
			"content_type": "Bon_article",
			"geo_type": ""
			}
		},
		{ "type": "Feature",
		"geometry": {"type": "Point", "coordinates": [5.61889, 48.6886]},
		"properties": {
			"title": "Void-Vacon",
			"content_type": "Bon_article",
			"geo_type": "city"
			}
		},
		{ "type": "Feature",
		"geometry": {"type": "Point", "coordinates": [5.49417, 43.6661]},
		"properties": {
			"title": "Canal_de_Marseille",
			"content_type": "Bon_article",
			"geo_type": "landmark"
			}
		},
		{ "type": "Feature",
		"geometry": {"type": "Point", "coordinates": [1.8139, 42.7008]},
		"properties": {
			"title": "Ax_3_Domaines",
			"content_type": "Bon_article",
			"geo_type": ""
			}
		},
		{ "type": "Feature",
		"geometry": {"type": "Point", "coordinates": [135.883, -66.05]},
		"properties": {
			"title": "Île_du_Millénaire",
			"content_type": "Bon_article",
			"geo_type": ""
			}
		},
		{ "type": "Feature",
		"geometry": {"type": "Point", "coordinates": [-1.70361, 48.1206]},
		"properties": {
			"title": "Université_Rennes_2",
			"content_type": "Bon_article",
			"geo_type": "edu"
			}
		},
		{ "type": "Feature",
		"geometry": {"type": "Point", "coordinates": [4.42861, 44.8222]},
		"properties": {
			"title": "Albon-d'Ardèche",
			"content_type": "Bon_article",
			"geo_type": "city"
			}
		},
		{ "type": "Feature",
		"geometry": {"type": "Point", "coordinates": [4.767, 48.567]},
		"properties": {
			"title": "Lac_du_Der-Chantecoq",
			"content_type": "Bon_article",
			"geo_type": "waterbody"
			}
		},
		{ "type": "Feature",
		"geometry": {"type": "Point", "coordinates": [-6.82028, 34.0328]},
		"properties": {
			"title": "Salé",
			"content_type": "Bon_article",
			"geo_type": ""
			}
		},
		{ "type": "Feature",
		"geometry": {"type": "Point", "coordinates": [-0.125, 51.4994]},
		"properties": {
			"title": "Palais_de_Westminster",
			"content_type": "Bon_article",
			"geo_type": "landmark"
			}
		},
		{ "type": "Feature",
		"geometry": {"type": "Point", "coordinates": [-7.93528, 37.0144]},
		"properties": {
			"title": "Algarve",
			"content_type": "Bon_article",
			"geo_type": "landmark"
			}
		},
		{ "type": "Feature",
		"geometry": {"type": "Point", "coordinates": [31.1311, 29.9755]},
		"properties": {
			"title": "Pyramide_de_Khéphren",
			"content_type": "Bon_article",
			"geo_type": "landmark"
			}
		},
		{ "type": "Feature",
		"geometry": {"type": "Point", "coordinates": [-0.3519, 45.7442]},
		"properties": {
			"title": "Cherves-Richemont",
			"content_type": "Bon_article",
			"geo_type": "city"
			}
		},
		{ "type": "Feature",
		"geometry": {"type": "Point", "coordinates": [4.33972, 48.2719]},
		"properties": {
			"title": "Lac_d'Orient",
			"content_type": "Bon_article",
			"geo_type": "waterbody"
			}
		},
		{ "type": "Feature",
		"geometry": {"type": "Point", "coordinates": [46.4083, 31.4127]},
		"properties": {
			"title": "Lagash",
			"content_type": "Bon_article",
			"geo_type": "landmark"
			}
		},
		{ "type": "Feature",
		"geometry": {"type": "Point", "coordinates": [-115.55, 51.1667]},
		"properties": {
			"title": "Parc_national_de_Banff",
			"content_type": "Bon_article",
			"geo_type": "landmark"
			}
		},
		{ "type": "Feature",
		"geometry": {"type": "Point", "coordinates": [159.7, -9.25]},
		"properties": {
			"title": "Bataille_du_cap_Espérance",
			"content_type": "Bon_article",
			"geo_type": "landmark"
			}
		},
		{ "type": "Feature",
		"geometry": {"type": "Point", "coordinates": [166.717, -8.63333]},
		"properties": {
			"title": "Bataille_des_îles_Santa_Cruz",
			"content_type": "Bon_article",
			"geo_type": "landmark"
			}
		},
		{ "type": "Feature",
		"geometry": {"type": "Point", "coordinates": [-73.4667, 45.6167]},
		"properties": {
			"title": "Parc_national_des_Îles-de-Boucherville",
			"content_type": "Bon_article",
			"geo_type": "landmark"
			}
		},
		{ "type": "Feature",
		"geometry": {"type": "Point", "coordinates": [1.62806, 49.635]},
		"properties": {
			"title": "Béthune_(rivière)",
			"content_type": "Bon_article",
			"geo_type": "landmark"
			}
		},
		{ "type": "Feature",
		"geometry": {"type": "Point", "coordinates": [-112.5, 41.12]},
		"properties": {
			"title": "Grand_Lac_Salé",
			"content_type": "Bon_article",
			"geo_type": "waterbody"
			}
		},
		{ "type": "Feature",
		"geometry": {"type": "Point", "coordinates": [-113.867, 49.0833]},
		"properties": {
			"title": "Parc_national_des_Lacs-Waterton",
			"content_type": "Bon_article",
			"geo_type": "landmark"
			}
		},
		{ "type": "Feature",
		"geometry": {"type": "Point", "coordinates": [13.8361, 46.3792]},
		"properties": {
			"title": "Triglav",
			"content_type": "Bon_article",
			"geo_type": "mountain"
			}
		},
		{ "type": "Feature",
		"geometry": {"type": "Point", "coordinates": [-121.813, 48.777]},
		"properties": {
			"title": "Mont_Baker",
			"content_type": "Bon_article",
			"geo_type": "mountain"
			}
		},
		{ "type": "Feature",
		"geometry": {"type": "Point", "coordinates": [-51.5, -69.083]},
		"properties": {
			"title": "Ernest_Shackleton",
			"content_type": "Bon_article",
			"geo_type": ""
			}
		},
		{ "type": "Feature",
		"geometry": {"type": "Point", "coordinates": [167.17, -77.53]},
		"properties": {
			"title": "Mont_Erebus",
			"content_type": "Bon_article",
			"geo_type": "mountain"
			}
		},
		{ "type": "Feature",
		"geometry": {"type": "Point", "coordinates": [3.52833, 43.3572]},
		"properties": {
			"title": "Marseillan_(Hérault)",
			"content_type": "Bon_article",
			"geo_type": "city"
			}
		},
		{ "type": "Feature",
		"geometry": {"type": "Point", "coordinates": [1.00028, 47.2108]},
		"properties": {
			"title": "Chédigny",
			"content_type": "Bon_article",
			"geo_type": "city"
			}
		},
		{ "type": "Feature",
		"geometry": {"type": "Point", "coordinates": [-4.07623, 53.0685]},
		"properties": {
			"title": "Mont_Snowdon_(pays_de_Galles)",
			"content_type": "Bon_article",
			"geo_type": "mountain"
			}
		},
		{ "type": "Feature",
		"geometry": {"type": "Point", "coordinates": [140.874, 38.2542]},
		"properties": {
			"title": "Université_du_Tōhoku",
			"content_type": "Bon_article",
			"geo_type": "edu"
			}
		},
		{ "type": "Feature",
		"geometry": {"type": "Point", "coordinates": [2.54197, 49.0133]},
		"properties": {
			"title": "CDGVAL",
			"content_type": "Bon_article",
			"geo_type": "landmark"
			}
		},
		{ "type": "Feature",
		"geometry": {"type": "Point", "coordinates": [-75.322, 4.895]},
		"properties": {
			"title": "Nevado_del_Ruiz",
			"content_type": "Bon_article",
			"geo_type": "mountain"
			}
		},
		{ "type": "Feature",
		"geometry": {"type": "Point", "coordinates": [9.21, 45.518]},
		"properties": {
			"title": "Bataille_de_la_Bicoque",
			"content_type": "Bon_article",
			"geo_type": "landmark"
			}
		},
		{ "type": "Feature",
		"geometry": {"type": "Point", "coordinates": [3.49861, 44.5172]},
		"properties": {
			"title": "Cathédrale_Notre-Dame-et-Saint-Privat_de_Mende",
			"content_type": "Bon_article",
			"geo_type": "landmark"
			}
		},
		{ "type": "Feature",
		"geometry": {"type": "Point", "coordinates": [-73.3167, 45.55]},
		"properties": {
			"title": "Parc_national_du_Mont-Saint-Bruno",
			"content_type": "Bon_article",
			"geo_type": "landmark"
			}
		},
		{ "type": "Feature",
		"geometry": {"type": "Point", "coordinates": [14.45, 35.8833]},
		"properties": {
			"title": "Grand_Siège_de_Malte",
			"content_type": "Bon_article",
			"geo_type": "landmark"
			}
		},
		{ "type": "Feature",
		"geometry": {"type": "Point", "coordinates": [-1.06917, 47.7592]},
		"properties": {
			"title": "La_Chapelle-Hullin",
			"content_type": "Bon_article",
			"geo_type": "city"
			}
		},
		{ "type": "Feature",
		"geometry": {"type": "Point", "coordinates": [55.6922, -21.2238]},
		"properties": {
			"title": "Formica_Leo",
			"content_type": "Bon_article",
			"geo_type": "scale:100000"
			}
		},
		{ "type": "Feature",
		"geometry": {"type": "Point", "coordinates": [5.24164, 43.9518]},
		"properties": {
			"title": "Murs_(Vaucluse)",
			"content_type": "Bon_article",
			"geo_type": "city"
			}
		},
		{ "type": "Feature",
		"geometry": {"type": "Point", "coordinates": [-73.67, 45.11]},
		"properties": {
			"title": "Verglas_massif_de_janvier_1998_dans_le_Nord-Est_de_l'Amérique_du_Nord",
			"content_type": "Bon_article",
			"geo_type": ""
			}
		},
		{ "type": "Feature",
		"geometry": {"type": "Point", "coordinates": [23.7325, 37.9892]},
		"properties": {
			"title": "Musée_national_archéologique_d'Athènes",
			"content_type": "Bon_article",
			"geo_type": "landmark"
			}
		},
		{ "type": "Feature",
		"geometry": {"type": "Point", "coordinates": [-5.00361, 56.7967]},
		"properties": {
			"title": "Ben_Nevis",
			"content_type": "Bon_article",
			"geo_type": "mountain"
			}
		},
		{ "type": "Feature",
		"geometry": {"type": "Point", "coordinates": [5.93528, 45.6828]},
		"properties": {
			"title": "Mouxy",
			"content_type": "Bon_article",
			"geo_type": "city"
			}
		},
		{ "type": "Feature",
		"geometry": {"type": "Point", "coordinates": [13.4831, 49.5831]},
		"properties": {
			"title": "Pilsner_Urquell",
			"content_type": "Bon_article",
			"geo_type": "landmark"
			}
		},
		{ "type": "Feature",
		"geometry": {"type": "Point", "coordinates": [-2.1727, 48.0701]},
		"properties": {
			"title": "Château_de_Comper",
			"content_type": "Bon_article",
			"geo_type": "landmark"
			}
		},
		{ "type": "Feature",
		"geometry": {"type": "Point", "coordinates": [3.06341, 50.6369]},
		"properties": {
			"title": "Place_du_Général-de-Gaulle_(Lille)",
			"content_type": "Bon_article",
			"geo_type": "landmark"
			}
		},
		{ "type": "Feature",
		"geometry": {"type": "Point", "coordinates": [2.457, 48.78]},
		"properties": {
			"title": "Créteil_Soleil",
			"content_type": "Bon_article",
			"geo_type": "landmark"
			}
		},
		{ "type": "Feature",
		"geometry": {"type": "Point", "coordinates": [16.4397, 43.5081]},
		"properties": {
			"title": "Palais_de_Dioclétien",
			"content_type": "Bon_article",
			"geo_type": "landmark"
			}
		},
		{ "type": "Feature",
		"geometry": {"type": "Point", "coordinates": [27.1839, 39.1309]},
		"properties": {
			"title": "Grand_autel_de_Pergame",
			"content_type": "Bon_article",
			"geo_type": "landmark"
			}
		},
		{ "type": "Feature",
		"geometry": {"type": "Point", "coordinates": [-70.7833, 47.0833]},
		"properties": {
			"title": "Réserve_nationale_de_faune_du_cap_Tourmente",
			"content_type": "Bon_article",
			"geo_type": "landmark"
			}
		},
		{ "type": "Feature",
		"geometry": {"type": "Point", "coordinates": [-0.559889, 47.4701]},
		"properties": {
			"title": "Château_d'Angers",
			"content_type": "Bon_article",
			"geo_type": "landmark"
			}
		},
		{ "type": "Feature",
		"geometry": {"type": "Point", "coordinates": [162.189, 11.4653]},
		"properties": {
			"title": "Opération_Sandstone",
			"content_type": "Bon_article",
			"geo_type": "landmark"
			}
		},
		{ "type": "Feature",
		"geometry": {"type": "Point", "coordinates": [-5.2344, 55.5623]},
		"properties": {
			"title": "Île_d'Arran",
			"content_type": "Bon_article",
			"geo_type": "isle"
			}
		},
		{ "type": "Feature",
		"geometry": {"type": "Point", "coordinates": [5.76417, 45.3253]},
		"properties": {
			"title": "Charmant_Som",
			"content_type": "Bon_article",
			"geo_type": "mountain"
			}
		},
		{ "type": "Feature",
		"geometry": {"type": "Point", "coordinates": [22.0, 41.83]},
		"properties": {
			"title": "Géographie_de_la_République_de_Macédoine",
			"content_type": "Bon_article",
			"geo_type": "country"
			}
		},
		{ "type": "Feature",
		"geometry": {"type": "Point", "coordinates": [6.16972, 48.9475]},
		"properties": {
			"title": "Gare_de_Lorraine_TGV",
			"content_type": "Bon_article",
			"geo_type": "railwaystation"
			}
		},
		{ "type": "Feature",
		"geometry": {"type": "Point", "coordinates": [2.0633, 48.8008]},
		"properties": {
			"title": "Lycée_militaire_de_Saint-Cyr",
			"content_type": "Bon_article",
			"geo_type": "edu"
			}
		},
		{ "type": "Feature",
		"geometry": {"type": "Point", "coordinates": [5.04361, 51.6496]},
		"properties": {
			"title": "Efteling",
			"content_type": "Bon_article",
			"geo_type": "type:landmark"
			}
		},
		{ "type": "Feature",
		"geometry": {"type": "Point", "coordinates": [93.35, 26.6667]},
		"properties": {
			"title": "Parc_national_de_Kaziranga",
			"content_type": "Bon_article",
			"geo_type": "landmark"
			}
		},
		{ "type": "Feature",
		"geometry": {"type": "Point", "coordinates": [12.2911, 41.7564]},
		"properties": {
			"title": "Place_des_Corporations",
			"content_type": "Bon_article",
			"geo_type": "city"
			}
		},
		{ "type": "Feature",
		"geometry": {"type": "Point", "coordinates": [-71.2308, 42.4496]},
		"properties": {
			"title": "Batailles_de_Lexington_et_Concord",
			"content_type": "Bon_article",
			"geo_type": "landmark"
			}
		},
		{ "type": "Feature",
		"geometry": {"type": "Point", "coordinates": [116.561, 6.07323]},
		"properties": {
			"title": "Mont_Kinabalu",
			"content_type": "Bon_article",
			"geo_type": "mountain"
			}
		},
		{ "type": "Feature",
		"geometry": {"type": "Point", "coordinates": [-1.44031, 49.8051]},
		"properties": {
			"title": "Prométhée_(Q153)",
			"content_type": "Bon_article",
			"geo_type": "landmark"
			}
		},
		{ "type": "Feature",
		"geometry": {"type": "Point", "coordinates": [20.1331, 49.1639]},
		"properties": {
			"title": "Gerlachovský_štít",
			"content_type": "Bon_article",
			"geo_type": "mountain"
			}
		},
		{ "type": "Feature",
		"geometry": {"type": "Point", "coordinates": [-116.279, 36.8311]},
		"properties": {
			"title": "NERVA",
			"content_type": "Bon_article",
			"geo_type": ""
			}
		},
		{ "type": "Feature",
		"geometry": {"type": "Point", "coordinates": [28.976, 41.0122]},
		"properties": {
			"title": "Siège_de_Constantinople_(717-718)",
			"content_type": "Bon_article",
			"geo_type": "landmark"
			}
		},
		{ "type": "Feature",
		"geometry": {"type": "Point", "coordinates": [88.6724, 40.3364]},
		"properties": {
			"title": "Momies_du_Tarim",
			"content_type": "Bon_article",
			"geo_type": "landmark"
			}
		},
		{ "type": "Feature",
		"geometry": {"type": "Point", "coordinates": [19.9042, 39.5623]},
		"properties": {
			"title": "Achilleion",
			"content_type": "Bon_article",
			"geo_type": ""
			}
		},
		{ "type": "Feature",
		"geometry": {"type": "Point", "coordinates": [-53.6722, 66.9389]},
		"properties": {
			"title": "Sisimiut",
			"content_type": "Bon_article",
			"geo_type": "city"
			}
		},
		{ "type": "Feature",
		"geometry": {"type": "Point", "coordinates": [3.30298, 48.5556]},
		"properties": {
			"title": "Gare_de_Provins",
			"content_type": "Bon_article",
			"geo_type": "railwaystation"
			}
		},
		{ "type": "Feature",
		"geometry": {"type": "Point", "coordinates": [2.06611, 48.8006]},
		"properties": {
			"title": "Maison_royale_de_Saint-Louis",
			"content_type": "Bon_article",
			"geo_type": "edu"
			}
		},
		{ "type": "Feature",
		"geometry": {"type": "Point", "coordinates": [3.97266, 49.1282]},
		"properties": {
			"title": "Parc_naturel_régional_de_la_Montagne_de_Reims",
			"content_type": "Bon_article",
			"geo_type": "landmark"
			}
		},
		{ "type": "Feature",
		"geometry": {"type": "Point", "coordinates": [-155.865, 19.689]},
		"properties": {
			"title": "Hualālai",
			"content_type": "Bon_article",
			"geo_type": "mountain"
			}
		},
		{ "type": "Feature",
		"geometry": {"type": "Point", "coordinates": [7.48361, 48.8261]},
		"properties": {
			"title": "Bouxwiller_(Bas-Rhin)",
			"content_type": "Bon_article",
			"geo_type": "city"
			}
		},
		{ "type": "Feature",
		"geometry": {"type": "Point", "coordinates": [-64.5583, 45.8556]},
		"properties": {
			"title": "Rivière_Petitcodiac",
			"content_type": "Bon_article",
			"geo_type": "landmark"
			}
		},
		{ "type": "Feature",
		"geometry": {"type": "Point", "coordinates": [-64.975, 46.8583]},
		"properties": {
			"title": "Parc_national_de_Kouchibouguac",
			"content_type": "Bon_article",
			"geo_type": "landmark"
			}
		},
		{ "type": "Feature",
		"geometry": {"type": "Point", "coordinates": [-64.5515, 46.0041]},
		"properties": {
			"title": "Memramcook",
			"content_type": "Bon_article",
			"geo_type": "city"
			}
		},
		{ "type": "Feature",
		"geometry": {"type": "Point", "coordinates": [-3.00614, 48.3596]},
		"properties": {
			"title": "Oust_(rivière)",
			"content_type": "Bon_article",
			"geo_type": "landmark"
			}
		},
		{ "type": "Feature",
		"geometry": {"type": "Point", "coordinates": [-4.45444, 47.9414]},
		"properties": {
			"title": "Naufrage_du_Droits_de_l'Homme",
			"content_type": "Bon_article",
			"geo_type": "landmark"
			}
		},
		{ "type": "Feature",
		"geometry": {"type": "Point", "coordinates": [2.18367, 50.8287]},
		"properties": {
			"title": "Blockhaus_d'Éperlecques",
			"content_type": "Bon_article",
			"geo_type": ""
			}
		},
		{ "type": "Feature",
		"geometry": {"type": "Point", "coordinates": [9.17611, 47.6633]},
		"properties": {
			"title": "Cathédrale_Notre-Dame_de_Constance",
			"content_type": "Bon_article",
			"geo_type": "landmark"
			}
		},
		{ "type": "Feature",
		"geometry": {"type": "Point", "coordinates": [-1.26813, 47.0959]},
		"properties": {
			"title": "Hellfest",
			"content_type": "Bon_article",
			"geo_type": "event"
			}
		},
		{ "type": "Feature",
		"geometry": {"type": "Point", "coordinates": [-61.0128, 46.6292]},
		"properties": {
			"title": "Chéticamp",
			"content_type": "Bon_article",
			"geo_type": "city"
			}
		},
		{ "type": "Feature",
		"geometry": {"type": "Point", "coordinates": [7.81667, 44.8]},
		"properties": {
			"title": "Bataille_de_Cérisoles",
			"content_type": "Bon_article",
			"geo_type": "landmark"
			}
		},
		{ "type": "Feature",
		"geometry": {"type": "Point", "coordinates": [-84.6305, 45.8611]},
		"properties": {
			"title": "Île_Mackinac",
			"content_type": "Bon_article",
			"geo_type": "isle"
			}
		},
		{ "type": "Feature",
		"geometry": {"type": "Point", "coordinates": [4.35, 39.89]},
		"properties": {
			"title": "Bataille_de_Minorque_(1756)",
			"content_type": "Bon_article",
			"geo_type": "landmark"
			}
		},
		{ "type": "Feature",
		"geometry": {"type": "Point", "coordinates": [20.0914, 49.1736]},
		"properties": {
			"title": "Rysy",
			"content_type": "Bon_article",
			"geo_type": "mountain"
			}
		},
		{ "type": "Feature",
		"geometry": {"type": "Point", "coordinates": [3.82513, 45.6765]},
		"properties": {
			"title": "Chalmazel_(station)",
			"content_type": "Bon_article",
			"geo_type": "mountain"
			}
		},
		{ "type": "Feature",
		"geometry": {"type": "Point", "coordinates": [69.4083, 37.1694]},
		"properties": {
			"title": "Aï_Khanoum",
			"content_type": "Bon_article",
			"geo_type": "landmark"
			}
		},
		{ "type": "Feature",
		"geometry": {"type": "Point", "coordinates": [5.23293, 49.5848]},
		"properties": {
			"title": "Ouvrage_de_La_Ferté",
			"content_type": "Bon_article",
			"geo_type": "landmark"
			}
		},
		{ "type": "Feature",
		"geometry": {"type": "Point", "coordinates": [43.8899, 56.2464]},
		"properties": {
			"title": "GAZ_(entreprise)",
			"content_type": "Bon_article",
			"geo_type": "landmark"
			}
		},
		{ "type": "Feature",
		"geometry": {"type": "Point", "coordinates": [10.4833, 36.7]},
		"properties": {
			"title": "Fusillade_de_Soliman",
			"content_type": "Bon_article",
			"geo_type": "landmark"
			}
		},
		{ "type": "Feature",
		"geometry": {"type": "Point", "coordinates": [-145.09, 73.12]},
		"properties": {
			"title": "Stargate_:_Continuum",
			"content_type": "Bon_article",
			"geo_type": ""
			}
		},
		{ "type": "Feature",
		"geometry": {"type": "Point", "coordinates": [7.25889, 48.2347]},
		"properties": {
			"title": "Taennchel",
			"content_type": "Bon_article",
			"geo_type": "mountain"
			}
		},
		{ "type": "Feature",
		"geometry": {"type": "Point", "coordinates": [166.922, -0.534953]},
		"properties": {
			"title": "Lagune_Buada",
			"content_type": "Bon_article",
			"geo_type": "waterbody"
			}
		},
		{ "type": "Feature",
		"geometry": {"type": "Point", "coordinates": [166.916, -0.545]},
		"properties": {
			"title": "Aéroport_international_de_Nauru",
			"content_type": "Bon_article",
			"geo_type": "airport"
			}
		},
		{ "type": "Feature",
		"geometry": {"type": "Point", "coordinates": [45.0108, 40.5639]},
		"properties": {
			"title": "Sevanavank",
			"content_type": "Bon_article",
			"geo_type": "landmark"
			}
		},
		{ "type": "Feature",
		"geometry": {"type": "Point", "coordinates": [5.78806, 45.2875]},
		"properties": {
			"title": "Chamechaude",
			"content_type": "Bon_article",
			"geo_type": "mountain"
			}
		},
		{ "type": "Feature",
		"geometry": {"type": "Point", "coordinates": [45.1223, 40.9742]},
		"properties": {
			"title": "Makaravank",
			"content_type": "Bon_article",
			"geo_type": "landmark"
			}
		},
		{ "type": "Feature",
		"geometry": {"type": "Point", "coordinates": [44.9977, 40.7299]},
		"properties": {
			"title": "Gochavank",
			"content_type": "Bon_article",
			"geo_type": "landmark"
			}
		},
		{ "type": "Feature",
		"geometry": {"type": "Point", "coordinates": [45.2329, 39.6841]},
		"properties": {
			"title": "Noravank",
			"content_type": "Bon_article",
			"geo_type": "landmark"
			}
		},
		{ "type": "Feature",
		"geometry": {"type": "Point", "coordinates": [44.5211, 40.1922]},
		"properties": {
			"title": "Matenadaran",
			"content_type": "Bon_article",
			"geo_type": "landmark"
			}
		},
		{ "type": "Feature",
		"geometry": {"type": "Point", "coordinates": [15.1333, 60.5503]},
		"properties": {
			"title": "Dalälven",
			"content_type": "Bon_article",
			"geo_type": "landmark"
			}
		},
		{ "type": "Feature",
		"geometry": {"type": "Point", "coordinates": [-37.467, -54.15]},
		"properties": {
			"title": "Harry_McNish",
			"content_type": "Bon_article",
			"geo_type": ""
			}
		},
		{ "type": "Feature",
		"geometry": {"type": "Point", "coordinates": [-46.067, -64.183]},
		"properties": {
			"title": "Expédition_Shackleton-Rowett",
			"content_type": "Bon_article",
			"geo_type": ""
			}
		},
		{ "type": "Feature",
		"geometry": {"type": "Point", "coordinates": [2.37216, 48.6535]},
		"properties": {
			"title": "La_Grande_Borne",
			"content_type": "Bon_article",
			"geo_type": "city"
			}
		},
		{ "type": "Feature",
		"geometry": {"type": "Point", "coordinates": [2.11207, 48.8161]},
		"properties": {
			"title": "Temple_de_l'Amour",
			"content_type": "Bon_article",
			"geo_type": ""
			}
		},
		{ "type": "Feature",
		"geometry": {"type": "Point", "coordinates": [-4.8202, 54.0527]},
		"properties": {
			"title": "Calf_of_Man",
			"content_type": "Bon_article",
			"geo_type": "isle"
			}
		},
		{ "type": "Feature",
		"geometry": {"type": "Point", "coordinates": [-61.1458, 47.8383]},
		"properties": {
			"title": "Rochers_aux_Oiseaux",
			"content_type": "Bon_article",
			"geo_type": "isle"
			}
		},
		{ "type": "Feature",
		"geometry": {"type": "Point", "coordinates": [-67.33, 48.5]},
		"properties": {
			"title": "Vallée_de_la_Matapédia",
			"content_type": "Bon_article",
			"geo_type": "landmark"
			}
		},
		{ "type": "Feature",
		"geometry": {"type": "Point", "coordinates": [-57.7528, 49.6217]},
		"properties": {
			"title": "Parc_national_du_Gros-Morne",
			"content_type": "Bon_article",
			"geo_type": "landmark"
			}
		},
		{ "type": "Feature",
		"geometry": {"type": "Point", "coordinates": [-73.95, 40.8194]},
		"properties": {
			"title": "City_College_of_New_York",
			"content_type": "Bon_article",
			"geo_type": "edu"
			}
		},
		{ "type": "Feature",
		"geometry": {"type": "Point", "coordinates": [2.22652, 49.0786]},
		"properties": {
			"title": "Abbaye_Notre-Dame_du_Val_(Mériel)",
			"content_type": "Bon_article",
			"geo_type": "landmark"
			}
		},
		{ "type": "Feature",
		"geometry": {"type": "Point", "coordinates": [14.4256, 40.8214]},
		"properties": {
			"title": "Vésuve",
			"content_type": "Bon_article",
			"geo_type": "mountain"
			}
		},
		{ "type": "Feature",
		"geometry": {"type": "Point", "coordinates": [6.04278, 47.2348]},
		"properties": {
			"title": "Fort_de_Bregille",
			"content_type": "Bon_article",
			"geo_type": "landmark"
			}
		},
		{ "type": "Feature",
		"geometry": {"type": "Point", "coordinates": [6.04119, 47.2422]},
		"properties": {
			"title": "Bregille",
			"content_type": "Bon_article",
			"geo_type": "city"
			}
		},
		{ "type": "Feature",
		"geometry": {"type": "Point", "coordinates": [5.96194, 48.9558]},
		"properties": {
			"title": "Abbaye_de_Sainte-Marie-au-Bois",
			"content_type": "Bon_article",
			"geo_type": "landmark"
			}
		},
		{ "type": "Feature",
		"geometry": {"type": "Point", "coordinates": [146.0, -35.0]},
		"properties": {
			"title": "Riverina",
			"content_type": "Bon_article",
			"geo_type": "adm2nd"
			}
		},
		{ "type": "Feature",
		"geometry": {"type": "Point", "coordinates": [-6.63465, 56.1324]},
		"properties": {
			"title": "Dubh_Artach",
			"content_type": "Bon_article",
			"geo_type": "isle"
			}
		},
		{ "type": "Feature",
		"geometry": {"type": "Point", "coordinates": [-5.5161, 57.274]},
		"properties": {
			"title": "Eilean_Donan",
			"content_type": "Bon_article",
			"geo_type": "isle"
			}
		},
		{ "type": "Feature",
		"geometry": {"type": "Point", "coordinates": [-6.05, 57.4]},
		"properties": {
			"title": "Raasay",
			"content_type": "Bon_article",
			"geo_type": "isle"
			}
		},
		{ "type": "Feature",
		"geometry": {"type": "Point", "coordinates": [-8.583, 57.817]},
		"properties": {
			"title": "Saint-Kilda",
			"content_type": "Bon_article",
			"geo_type": "isle"
			}
		},
		{ "type": "Feature",
		"geometry": {"type": "Point", "coordinates": [-9.50917, 39.4144]},
		"properties": {
			"title": "Archipel_des_Berlengas",
			"content_type": "Bon_article",
			"geo_type": "isle"
			}
		},
		{ "type": "Feature",
		"geometry": {"type": "Point", "coordinates": [-9.27944, 39.2758]},
		"properties": {
			"title": "São_Bartolomeu_dos_Galegos",
			"content_type": "Bon_article",
			"geo_type": "landmark"
			}
		},
		{ "type": "Feature",
		"geometry": {"type": "Point", "coordinates": [-1.28083, 47.0867]},
		"properties": {
			"title": "Château_de_Clisson",
			"content_type": "Bon_article",
			"geo_type": "landmark"
			}
		},
		{ "type": "Feature",
		"geometry": {"type": "Point", "coordinates": [20.0028, 49.1639]},
		"properties": {
			"title": "Kriváň_(montagne)",
			"content_type": "Bon_article",
			"geo_type": "mountain"
			}
		},
		{ "type": "Feature",
		"geometry": {"type": "Point", "coordinates": [-58.4, -33.083]},
		"properties": {
			"title": "Guerre_du_papier",
			"content_type": "Bon_article",
			"geo_type": "landmark"
			}
		},
		{ "type": "Feature",
		"geometry": {"type": "Point", "coordinates": [-64.8792, 47.6731]},
		"properties": {
			"title": "Pokemouche",
			"content_type": "Bon_article",
			"geo_type": "city"
			}
		},
		{ "type": "Feature",
		"geometry": {"type": "Point", "coordinates": [-88.2261, 40.1053]},
		"properties": {
			"title": "Observatoire_astronomique_de_l'université_de_l'Illinois",
			"content_type": "Bon_article",
			"geo_type": ""
			}
		},
		{ "type": "Feature",
		"geometry": {"type": "Point", "coordinates": [-1.71083, 48.108]},
		"properties": {
			"title": "Centre_de_formation_du_Stade_rennais_football_club",
			"content_type": "Bon_article",
			"geo_type": ""
			}
		},
		{ "type": "Feature",
		"geometry": {"type": "Point", "coordinates": [-65.011, 47.774]},
		"properties": {
			"title": "Sainte-Anne-du-Bocage",
			"content_type": "Bon_article",
			"geo_type": "landmark"
			}
		},
		{ "type": "Feature",
		"geometry": {"type": "Point", "coordinates": [23.724, 66.399]},
		"properties": {
			"title": "Aavasaksa",
			"content_type": "Bon_article",
			"geo_type": "mountain"
			}
		},
		{ "type": "Feature",
		"geometry": {"type": "Point", "coordinates": [-8.50972, 57.8662]},
		"properties": {
			"title": "Stac_Lee",
			"content_type": "Bon_article",
			"geo_type": "isle"
			}
		},
		{ "type": "Feature",
		"geometry": {"type": "Point", "coordinates": [19.717, 43.733]},
		"properties": {
			"title": "Zlatibor_(montagne)",
			"content_type": "Bon_article",
			"geo_type": ""
			}
		},
		{ "type": "Feature",
		"geometry": {"type": "Point", "coordinates": [-72.2167, 82.2167]},
		"properties": {
			"title": "Parc_national_Quttinirpaaq",
			"content_type": "Bon_article",
			"geo_type": "landmark"
			}
		},
		{ "type": "Feature",
		"geometry": {"type": "Point", "coordinates": [10.3252, 36.844]},
		"properties": {
			"title": "Ports_puniques_de_Carthage",
			"content_type": "Bon_article",
			"geo_type": "landmark"
			}
		},
		{ "type": "Feature",
		"geometry": {"type": "Point", "coordinates": [7.27141, 43.6959]},
		"properties": {
			"title": "Nice",
			"content_type": "Bon_article",
			"geo_type": "city"
			}
		},
		{ "type": "Feature",
		"geometry": {"type": "Point", "coordinates": [2.977, 50.4125]},
		"properties": {
			"title": "Noyelles_(centre_commercial)",
			"content_type": "Bon_article",
			"geo_type": "landmark"
			}
		},
		{ "type": "Feature",
		"geometry": {"type": "Point", "coordinates": [127.876, 34.9453]},
		"properties": {
			"title": "Bataille_de_No_Ryang",
			"content_type": "Bon_article",
			"geo_type": "landmark"
			}
		},
		{ "type": "Feature",
		"geometry": {"type": "Point", "coordinates": [6.93057, 46.9903]},
		"properties": {
			"title": "Neuchâtel",
			"content_type": "Bon_article",
			"geo_type": "city"
			}
		},
		{ "type": "Feature",
		"geometry": {"type": "Point", "coordinates": [55.5212, -21.0646]},
		"properties": {
			"title": "L'Âme_de_la_France",
			"content_type": "Bon_article",
			"geo_type": ""
			}
		},
		{ "type": "Feature",
		"geometry": {"type": "Point", "coordinates": [0.15889, 47.6475]},
		"properties": {
			"title": "Château_du_Lude_(Sarthe)",
			"content_type": "Bon_article",
			"geo_type": "landmark"
			}
		},
		{ "type": "Feature",
		"geometry": {"type": "Point", "coordinates": [10.3241, 36.8533]},
		"properties": {
			"title": "Byrsa",
			"content_type": "Bon_article",
			"geo_type": ""
			}
		},
		{ "type": "Feature",
		"geometry": {"type": "Point", "coordinates": [-123.03, 44.9387]},
		"properties": {
			"title": "Capitole_de_l'État_d'Oregon",
			"content_type": "Bon_article",
			"geo_type": ""
			}
		},
		{ "type": "Feature",
		"geometry": {"type": "Point", "coordinates": [-76.7405, 45.8614]},
		"properties": {
			"title": "Pont_Félix-Gabriel-Marchand_(Mansfield-et-Pontefract)",
			"content_type": "Bon_article",
			"geo_type": "landmark"
			}
		},
		{ "type": "Feature",
		"geometry": {"type": "Point", "coordinates": [-0.363494, 49.1856]},
		"properties": {
			"title": "Musée_de_Normandie",
			"content_type": "Bon_article",
			"geo_type": "landmark"
			}
		},
		{ "type": "Feature",
		"geometry": {"type": "Point", "coordinates": [10.3231, 36.8415]},
		"properties": {
			"title": "Tophet_de_Carthage",
			"content_type": "Bon_article",
			"geo_type": ""
			}
		},
		{ "type": "Feature",
		"geometry": {"type": "Point", "coordinates": [10.3351, 36.8543]},
		"properties": {
			"title": "Thermes_d'Antonin_de_Carthage",
			"content_type": "Bon_article",
			"geo_type": "landmark"
			}
		},
		{ "type": "Feature",
		"geometry": {"type": "Point", "coordinates": [6.03466, 47.2418]},
		"properties": {
			"title": "Funiculaire_de_Bregille",
			"content_type": "Bon_article",
			"geo_type": "landmark"
			}
		},
		{ "type": "Feature",
		"geometry": {"type": "Point", "coordinates": [-94.5699, 39.0704]},
		"properties": {
			"title": "Laugh-O-Gram",
			"content_type": "Bon_article",
			"geo_type": "landmark"
			}
		},
		{ "type": "Feature",
		"geometry": {"type": "Point", "coordinates": [1.56417, 45.4256]},
		"properties": {
			"title": "Uzerche",
			"content_type": "Bon_article",
			"geo_type": "city"
			}
		},
		{ "type": "Feature",
		"geometry": {"type": "Point", "coordinates": [8.26797, 50.0014]},
		"properties": {
			"title": "Sanctuaire_d'Isis_et_de_Mater_Magna",
			"content_type": "Bon_article",
			"geo_type": "landmark"
			}
		},
		{ "type": "Feature",
		"geometry": {"type": "Point", "coordinates": [-155.201, 19.3668]},
		"properties": {
			"title": "Mauna_Ulu",
			"content_type": "Bon_article",
			"geo_type": "mountain"
			}
		},
		{ "type": "Feature",
		"geometry": {"type": "Point", "coordinates": [4.59662, 48.7286]},
		"properties": {
			"title": "Cité_scolaire_François-Ier_(Vitry-le-François)",
			"content_type": "Bon_article",
			"geo_type": "edu"
			}
		},
		{ "type": "Feature",
		"geometry": {"type": "Point", "coordinates": [5.705, 45.162]},
		"properties": {
			"title": "Cellatex",
			"content_type": "Bon_article",
			"geo_type": ""
			}
		},
		{ "type": "Feature",
		"geometry": {"type": "Point", "coordinates": [-87.6233, 41.8827]},
		"properties": {
			"title": "Cloud_Gate",
			"content_type": "Bon_article",
			"geo_type": ""
			}
		},
		{ "type": "Feature",
		"geometry": {"type": "Point", "coordinates": [-1.68212, 48.1115]},
		"properties": {
			"title": "Hôtel_de_Blossac",
			"content_type": "Bon_article",
			"geo_type": ""
			}
		},
		{ "type": "Feature",
		"geometry": {"type": "Point", "coordinates": [44.7656, 41.1483]},
		"properties": {
			"title": "Akhtala_(monastère)",
			"content_type": "Bon_article",
			"geo_type": "landmark"
			}
		},
		{ "type": "Feature",
		"geometry": {"type": "Point", "coordinates": [-1.533, 47.217]},
		"properties": {
			"title": "Nantes",
			"content_type": "Bon_article",
			"geo_type": ""
			}
		},
		{ "type": "Feature",
		"geometry": {"type": "Point", "coordinates": [2.07487, 49.0389]},
		"properties": {
			"title": "Université_de_Cergy-Pontoise",
			"content_type": "Bon_article",
			"geo_type": "edu"
			}
		},
		{ "type": "Feature",
		"geometry": {"type": "Point", "coordinates": [3.08, 50.38]},
		"properties": {
			"title": "Universités_de_Douai",
			"content_type": "Bon_article",
			"geo_type": "edu"
			}
		},
		{ "type": "Feature",
		"geometry": {"type": "Point", "coordinates": [170.067, -71.633]},
		"properties": {
			"title": "Expédition_Southern_Cross",
			"content_type": "Bon_article",
			"geo_type": ""
			}
		},
		{ "type": "Feature",
		"geometry": {"type": "Point", "coordinates": [-4.59556, 48.2767]},
		"properties": {
			"title": "Bataille_de_Camaret",
			"content_type": "Bon_article",
			"geo_type": "landmark"
			}
		},
		{ "type": "Feature",
		"geometry": {"type": "Point", "coordinates": [5.8472, 45.6928]},
		"properties": {
			"title": "Col_du_Chat",
			"content_type": "Bon_article",
			"geo_type": "landmark"
			}
		},
		{ "type": "Feature",
		"geometry": {"type": "Point", "coordinates": [-1.89639, 52.9867]},
		"properties": {
			"title": "Oblivion_(Alton_Towers)",
			"content_type": "Bon_article",
			"geo_type": "landmark"
			}
		},
		{ "type": "Feature",
		"geometry": {"type": "Point", "coordinates": [-1.88278, 52.9869]},
		"properties": {
			"title": "Nemesis_(Alton_Towers)",
			"content_type": "Bon_article",
			"geo_type": "landmark"
			}
		},
		{ "type": "Feature",
		"geometry": {"type": "Point", "coordinates": [24.142, 35.4629]},
		"properties": {
			"title": "Aptera_(Grèce)",
			"content_type": "Bon_article",
			"geo_type": "landmark"
			}
		},
		{ "type": "Feature",
		"geometry": {"type": "Point", "coordinates": [-78.8736, 42.9386]},
		"properties": {
			"title": "Assassinat_de_William_McKinley",
			"content_type": "Bon_article",
			"geo_type": "landmark"
			}
		},
		{ "type": "Feature",
		"geometry": {"type": "Point", "coordinates": [-79.5406, 43.839]},
		"properties": {
			"title": "Behemoth_(Canada's_Wonderland)",
			"content_type": "Bon_article",
			"geo_type": "landmark"
			}
		},
		{ "type": "Feature",
		"geometry": {"type": "Point", "coordinates": [-77.0203, 38.8919]},
		"properties": {
			"title": "Assassinat_de_James_A._Garfield",
			"content_type": "Bon_article",
			"geo_type": "landmark"
			}
		},
		{ "type": "Feature",
		"geometry": {"type": "Point", "coordinates": [-87.6208, 41.8575]},
		"properties": {
			"title": "Prairie_Avenue",
			"content_type": "Bon_article",
			"geo_type": "landmark"
			}
		},
		{ "type": "Feature",
		"geometry": {"type": "Point", "coordinates": [-122.067, 43.1528]},
		"properties": {
			"title": "Mont_Thielsen",
			"content_type": "Bon_article",
			"geo_type": "mountain"
			}
		},
		{ "type": "Feature",
		"geometry": {"type": "Point", "coordinates": [3.81222, 43.6219]},
		"properties": {
			"title": "Stade_de_la_Mosson",
			"content_type": "Bon_article",
			"geo_type": ""
			}
		},
		{ "type": "Feature",
		"geometry": {"type": "Point", "coordinates": [2.38083, 48.8297]},
		"properties": {
			"title": "Université_Paris_Diderot_Paris_7",
			"content_type": "Bon_article",
			"geo_type": "edu"
			}
		},
		{ "type": "Feature",
		"geometry": {"type": "Point", "coordinates": [-68.4667, 48.5083]},
		"properties": {
			"title": "Réserve_nationale_de_faune_de_Pointe-au-Père",
			"content_type": "Bon_article",
			"geo_type": "landmark"
			}
		},
		{ "type": "Feature",
		"geometry": {"type": "Point", "coordinates": [2.31583, 48.8575]},
		"properties": {
			"title": "Hôtel_du_Châtelet",
			"content_type": "Bon_article",
			"geo_type": ""
			}
		},
		{ "type": "Feature",
		"geometry": {"type": "Point", "coordinates": [6.499, 46.509]},
		"properties": {
			"title": "Morges",
			"content_type": "Bon_article",
			"geo_type": "city"
			}
		},
		{ "type": "Feature",
		"geometry": {"type": "Point", "coordinates": [-0.3658, 45.7802]},
		"properties": {
			"title": "Vallée_de_l'Antenne",
			"content_type": "Bon_article",
			"geo_type": "landmark"
			}
		},
		{ "type": "Feature",
		"geometry": {"type": "Point", "coordinates": [-0.3552, 46.0229]},
		"properties": {
			"title": "Église_Saint-Pierre_d'Aulnay",
			"content_type": "Bon_article",
			"geo_type": "landmark"
			}
		},
		{ "type": "Feature",
		"geometry": {"type": "Point", "coordinates": [6.61778, 51.6586]},
		"properties": {
			"title": "Opération_Varsity",
			"content_type": "Bon_article",
			"geo_type": "landmark"
			}
		},
		{ "type": "Feature",
		"geometry": {"type": "Point", "coordinates": [-72.5525, 46.3428]},
		"properties": {
			"title": "Bataille_de_Trois-Rivières",
			"content_type": "Bon_article",
			"geo_type": "landmark"
			}
		},
		{ "type": "Feature",
		"geometry": {"type": "Point", "coordinates": [21.617, 37.633]},
		"properties": {
			"title": "Musée_archéologique_d'Olympie",
			"content_type": "Bon_article",
			"geo_type": "landmark"
			}
		},
		{ "type": "Feature",
		"geometry": {"type": "Point", "coordinates": [-65.4764, 48.0386]},
		"properties": {
			"title": "Réserve_aquatique_de_l'Estuaire-de-la-Rivière-Bonaventure",
			"content_type": "Bon_article",
			"geo_type": "landmark"
			}
		},
		{ "type": "Feature",
		"geometry": {"type": "Point", "coordinates": [-73.1722, 45.9972]},
		"properties": {
			"title": "Centrale_de_Tracy",
			"content_type": "Bon_article",
			"geo_type": "landmark"
			}
		},
		{ "type": "Feature",
		"geometry": {"type": "Point", "coordinates": [118.45, -64.867]},
		"properties": {
			"title": "Nouveau-Groenland_méridional",
			"content_type": "Bon_article",
			"geo_type": ""
			}
		},
		{ "type": "Feature",
		"geometry": {"type": "Point", "coordinates": [-1.17839, 47.7419]},
		"properties": {
			"title": "Château_médiéval_de_Pouancé",
			"content_type": "Bon_article",
			"geo_type": "landmark"
			}
		},
		{ "type": "Feature",
		"geometry": {"type": "Point", "coordinates": [134.504, 7.36215]},
		"properties": {
			"title": "Pont_de_Koror-Babeldaob",
			"content_type": "Bon_article",
			"geo_type": "landmark"
			}
		},
		{ "type": "Feature",
		"geometry": {"type": "Point", "coordinates": [-118.297, 34.0597]},
		"properties": {
			"title": "Assassinat_de_Robert_F._Kennedy",
			"content_type": "Bon_article",
			"geo_type": "landmark"
			}
		},
		{ "type": "Feature",
		"geometry": {"type": "Point", "coordinates": [8.57619, 36.4919]},
		"properties": {
			"title": "Chemtou",
			"content_type": "Bon_article",
			"geo_type": "landmark"
			}
		},
		{ "type": "Feature",
		"geometry": {"type": "Point", "coordinates": [-0.497775, 48.2591]},
		"properties": {
			"title": "Site_archéologique_de_Jublains",
			"content_type": "Bon_article",
			"geo_type": "landmark"
			}
		},
		{ "type": "Feature",
		"geometry": {"type": "Point", "coordinates": [5.9681, 47.2214]},
		"properties": {
			"title": "Planoise",
			"content_type": "Bon_article",
			"geo_type": "city"
			}
		},
		{ "type": "Feature",
		"geometry": {"type": "Point", "coordinates": [-72.2519, 45.3753]},
		"properties": {
			"title": "Lac_Stukely",
			"content_type": "Bon_article",
			"geo_type": "waterbody"
			}
		},
		{ "type": "Feature",
		"geometry": {"type": "Point", "coordinates": [-117.919, 33.8122]},
		"properties": {
			"title": "Disneyland",
			"content_type": "Bon_article",
			"geo_type": "type:landmark"
			}
		},
		{ "type": "Feature",
		"geometry": {"type": "Point", "coordinates": [141.341, 43.0747]},
		"properties": {
			"title": "Université_de_Hokkaidō",
			"content_type": "Bon_article",
			"geo_type": "edu"
			}
		},
		{ "type": "Feature",
		"geometry": {"type": "Point", "coordinates": [130.213, 33.5967]},
		"properties": {
			"title": "Université_de_Kyūshū",
			"content_type": "Bon_article",
			"geo_type": "edu"
			}
		},
		{ "type": "Feature",
		"geometry": {"type": "Point", "coordinates": [6.03731, 47.2404]},
		"properties": {
			"title": "Fort_de_Beauregard_(Besançon)",
			"content_type": "Bon_article",
			"geo_type": "landmark"
			}
		},
		{ "type": "Feature",
		"geometry": {"type": "Point", "coordinates": [6.05132, 47.2196]},
		"properties": {
			"title": "Notre-Dame_de_la_Libération",
			"content_type": "Bon_article",
			"geo_type": ""
			}
		},
		{ "type": "Feature",
		"geometry": {"type": "Point", "coordinates": [6.00036, 47.222]},
		"properties": {
			"title": "Fort_de_Rosemont",
			"content_type": "Bon_article",
			"geo_type": "landmark"
			}
		},
		{ "type": "Feature",
		"geometry": {"type": "Point", "coordinates": [43.0839, 38.6088]},
		"properties": {
			"title": "Ktuts_Anapat",
			"content_type": "Bon_article",
			"geo_type": "landmark"
			}
		},
		{ "type": "Feature",
		"geometry": {"type": "Point", "coordinates": [-121.559, 40.4454]},
		"properties": {
			"title": "Mont_Tehama",
			"content_type": "Bon_article",
			"geo_type": "mountain"
			}
		},
		{ "type": "Feature",
		"geometry": {"type": "Point", "coordinates": [-75.87, 3.04]},
		"properties": {
			"title": "République_de_Marquetalia",
			"content_type": "Bon_article",
			"geo_type": ""
			}
		},
		{ "type": "Feature",
		"geometry": {"type": "Point", "coordinates": [21.2472, 48.7125]},
		"properties": {
			"title": "Luník_IX",
			"content_type": "Bon_article",
			"geo_type": ""
			}
		},
		{ "type": "Feature",
		"geometry": {"type": "Point", "coordinates": [21.2581, 48.7202]},
		"properties": {
			"title": "Cathédrale_Sainte-Élisabeth_de_Košice",
			"content_type": "Bon_article",
			"geo_type": "landmark"
			}
		},
		{ "type": "Feature",
		"geometry": {"type": "Point", "coordinates": [21.2584, 48.7199]},
		"properties": {
			"title": "Église_Saint-Michel_de_Košice",
			"content_type": "Bon_article",
			"geo_type": "landmark"
			}
		},
		{ "type": "Feature",
		"geometry": {"type": "Point", "coordinates": [-2.75931, 47.6584]},
		"properties": {
			"title": "Remparts_de_Vannes",
			"content_type": "Bon_article",
			"geo_type": ""
			}
		},
		{ "type": "Feature",
		"geometry": {"type": "Point", "coordinates": [-68.4667, 48.5167]},
		"properties": {
			"title": "NCSM_Onondaga_(S73)",
			"content_type": "Bon_article",
			"geo_type": ""
			}
		},
		{ "type": "Feature",
		"geometry": {"type": "Point", "coordinates": [76.0, 2.0]},
		"properties": {
			"title": "Viaud_Ridge",
			"content_type": "Bon_article",
			"geo_type": "mountain"
			}
		},
		{ "type": "Feature",
		"geometry": {"type": "Point", "coordinates": [25.15, 37.067]},
		"properties": {
			"title": "Musée_archéologique_de_Paros",
			"content_type": "Bon_article",
			"geo_type": "landmark"
			}
		},
		{ "type": "Feature",
		"geometry": {"type": "Point", "coordinates": [-1.69597, 48.1056]},
		"properties": {
			"title": "Histoire_du_Stade_rennais_football_club",
			"content_type": "Bon_article",
			"geo_type": ""
			}
		},
		{ "type": "Feature",
		"geometry": {"type": "Point", "coordinates": [6.12, 43.0958]},
		"properties": {
			"title": "Le_Plantier_de_Costebelle",
			"content_type": "Bon_article",
			"geo_type": ""
			}
		},
		{ "type": "Feature",
		"geometry": {"type": "Point", "coordinates": [6.06231, 47.2488]},
		"properties": {
			"title": "Château_de_la_Juive",
			"content_type": "Bon_article",
			"geo_type": "landmark"
			}
		},
		{ "type": "Feature",
		"geometry": {"type": "Point", "coordinates": [6.04876, 47.2562]},
		"properties": {
			"title": "Cimetière_juif_de_Besançon",
			"content_type": "Bon_article",
			"geo_type": ""
			}
		},
		{ "type": "Feature",
		"geometry": {"type": "Point", "coordinates": [-80.25, 42.5667]},
		"properties": {
			"title": "Réserve_nationale_de_faune_de_Long_Point",
			"content_type": "Bon_article",
			"geo_type": "landmark"
			}
		},
		{ "type": "Feature",
		"geometry": {"type": "Point", "coordinates": [4.47833, 48.345]},
		"properties": {
			"title": "Lacs_Amance_et_du_Temple",
			"content_type": "Bon_article",
			"geo_type": "waterbody"
			}
		},
		{ "type": "Feature",
		"geometry": {"type": "Point", "coordinates": [-122.15, 43.5207]},
		"properties": {
			"title": "Pic_Diamond",
			"content_type": "Bon_article",
			"geo_type": "mountain"
			}
		},
		{ "type": "Feature",
		"geometry": {"type": "Point", "coordinates": [-1.53905, 47.2233]},
		"properties": {
			"title": "Cimetière_de_Nantes",
			"content_type": "Bon_article",
			"geo_type": "landmark"
			}
		},
		{ "type": "Feature",
		"geometry": {"type": "Point", "coordinates": [-68.469, 48.5174]},
		"properties": {
			"title": "Site_historique_maritime_de_la_Pointe-au-Père",
			"content_type": "Bon_article",
			"geo_type": "landmark"
			}
		},
		{ "type": "Feature",
		"geometry": {"type": "Point", "coordinates": [-1.27591, 47.085]},
		"properties": {
			"title": "Domaine_de_la_Garenne_Lemot",
			"content_type": "Bon_article",
			"geo_type": "landmark"
			}
		},
		{ "type": "Feature",
		"geometry": {"type": "Point", "coordinates": [5.01665, 47.3213]},
		"properties": {
			"title": "Puits_de_Moïse",
			"content_type": "Bon_article",
			"geo_type": ""
			}
		},
		{ "type": "Feature",
		"geometry": {"type": "Point", "coordinates": [-2.19611, 53.4819]},
		"properties": {
			"title": "B_of_the_Bang",
			"content_type": "Bon_article",
			"geo_type": "landmark"
			}
		},
		{ "type": "Feature",
		"geometry": {"type": "Point", "coordinates": [23.7, 37.9333]},
		"properties": {
			"title": "Bataille_de_Phalère",
			"content_type": "Bon_article",
			"geo_type": "landmark"
			}
		},
		{ "type": "Feature",
		"geometry": {"type": "Point", "coordinates": [-1.28917, 43.4947]},
		"properties": {
			"title": "Urt",
			"content_type": "Bon_article",
			"geo_type": "city"
			}
		},
		{ "type": "Feature",
		"geometry": {"type": "Point", "coordinates": [-1.64092, 47.0386]},
		"properties": {
			"title": "Abbaye_de_Saint-Philbert-de-Grand-Lieu",
			"content_type": "Bon_article",
			"geo_type": "landmark"
			}
		},
		{ "type": "Feature",
		"geometry": {"type": "Point", "coordinates": [28.0, 36.17]},
		"properties": {
			"title": "Accusation_de_crime_rituel_contre_les_Juifs_de_Rhodes",
			"content_type": "Bon_article",
			"geo_type": ""
			}
		},
		{ "type": "Feature",
		"geometry": {"type": "Point", "coordinates": [-155.246, 19.4138]},
		"properties": {
			"title": "Kīlauea_Iki",
			"content_type": "Bon_article",
			"geo_type": "scale:100000"
			}
		},
		{ "type": "Feature",
		"geometry": {"type": "Point", "coordinates": [10.3312, 36.8616]},
		"properties": {
			"title": "Basilique_de_Damous_El_Karita",
			"content_type": "Bon_article",
			"geo_type": "landmark"
			}
		},
		{ "type": "Feature",
		"geometry": {"type": "Point", "coordinates": [-155.717, 20.0861]},
		"properties": {
			"title": "Kohala_(volcan)",
			"content_type": "Bon_article",
			"geo_type": "mountain"
			}
		},
		{ "type": "Feature",
		"geometry": {"type": "Point", "coordinates": [14.2667, 55.6667]},
		"properties": {
			"title": "Parc_national_de_Stenshuvud",
			"content_type": "Bon_article",
			"geo_type": "landmark"
			}
		},
		{ "type": "Feature",
		"geometry": {"type": "Point", "coordinates": [2.1892, 41.4037]},
		"properties": {
			"title": "Plan_Cerdà",
			"content_type": "Bon_article",
			"geo_type": "landmark"
			}
		},
		{ "type": "Feature",
		"geometry": {"type": "Point", "coordinates": [-117.52, 51.3014]},
		"properties": {
			"title": "Col_Rogers",
			"content_type": "Bon_article",
			"geo_type": "landmark"
			}
		},
		{ "type": "Feature",
		"geometry": {"type": "Point", "coordinates": [0.1, 49.49]},
		"properties": {
			"title": "Le_Havre",
			"content_type": "Bon_article",
			"geo_type": "city"
			}
		},
		{ "type": "Feature",
		"geometry": {"type": "Point", "coordinates": [-117.442, 51.2367]},
		"properties": {
			"title": "Glacier_Illecillewaet",
			"content_type": "Bon_article",
			"geo_type": "glacier"
			}
		},
		{ "type": "Feature",
		"geometry": {"type": "Point", "coordinates": [-117.883, 34.9929]},
		"properties": {
			"title": "Balls_8",
			"content_type": "Bon_article",
			"geo_type": "landmark"
			}
		},
		{ "type": "Feature",
		"geometry": {"type": "Point", "coordinates": [20.2128, 49.1958]},
		"properties": {
			"title": "Lomnický_štít",
			"content_type": "Bon_article",
			"geo_type": "mountain"
			}
		},
		{ "type": "Feature",
		"geometry": {"type": "Point", "coordinates": [31.0836, 59.9075]},
		"properties": {
			"title": "Offensive_de_Siniavino",
			"content_type": "Bon_article",
			"geo_type": "landmark"
			}
		},
		{ "type": "Feature",
		"geometry": {"type": "Point", "coordinates": [3.37824, 50.4105]},
		"properties": {
			"title": "Compagnie_d'Hasnon",
			"content_type": "Bon_article",
			"geo_type": ""
			}
		},
		{ "type": "Feature",
		"geometry": {"type": "Point", "coordinates": [-67.5303, 46.2967]},
		"properties": {
			"title": "Pont_de_Hartland",
			"content_type": "Bon_article",
			"geo_type": "landmark"
			}
		},
		{ "type": "Feature",
		"geometry": {"type": "Point", "coordinates": [3.2791, 50.4131]},
		"properties": {
			"title": "Compagnie_des_Canonniers_de_Lille",
			"content_type": "Bon_article",
			"geo_type": ""
			}
		},
		{ "type": "Feature",
		"geometry": {"type": "Point", "coordinates": [3.45926, 46.1302]},
		"properties": {
			"title": "Générations_Star_Wars_et_Science_Fiction",
			"content_type": "Bon_article",
			"geo_type": "landmark"
			}
		},
		{ "type": "Feature",
		"geometry": {"type": "Point", "coordinates": [36.567, -6.83]},
		"properties": {
			"title": "Xenoperdix",
			"content_type": "Bon_article",
			"geo_type": ""
			}
		},
		{ "type": "Feature",
		"geometry": {"type": "Point", "coordinates": [-1.18028, 47.6964]},
		"properties": {
			"title": "Prieuré_de_la_Primaudière",
			"content_type": "Bon_article",
			"geo_type": "landmark"
			}
		},
		{ "type": "Feature",
		"geometry": {"type": "Point", "coordinates": [-155.126, 19.3801]},
		"properties": {
			"title": "Kamoamoa",
			"content_type": "Bon_article",
			"geo_type": "mountain"
			}
		},
		{ "type": "Feature",
		"geometry": {"type": "Point", "coordinates": [-2.6506, 56.0564]},
		"properties": {
			"title": "Château_de_Tantallon",
			"content_type": "Bon_article",
			"geo_type": "landmark"
			}
		},
		{ "type": "Feature",
		"geometry": {"type": "Point", "coordinates": [2.53338, 49.054]},
		"properties": {
			"title": "Grange_de_Vaulerent",
			"content_type": "Bon_article",
			"geo_type": ""
			}
		},
		{ "type": "Feature",
		"geometry": {"type": "Point", "coordinates": [-73.2833, 45.0]},
		"properties": {
			"title": "Inondations_du_bassin_du_lac_Champlain_et_de_la_rivière_Richelieu_en_2011",
			"content_type": "Bon_article",
			"geo_type": ""
			}
		},
		{ "type": "Feature",
		"geometry": {"type": "Point", "coordinates": [49.8502, 40.3442]},
		"properties": {
			"title": "Concours_Eurovision_de_la_chanson_2012",
			"content_type": "Bon_article",
			"geo_type": "landmark"
			}
		},
		{ "type": "Feature",
		"geometry": {"type": "Point", "coordinates": [2.10774, 48.8146]},
		"properties": {
			"title": "Pavillon_frais",
			"content_type": "Bon_article",
			"geo_type": ""
			}
		},
		{ "type": "Feature",
		"geometry": {"type": "Point", "coordinates": [-72.6808, 47.5197]},
		"properties": {
			"title": "Pont_Ducharme",
			"content_type": "Bon_article",
			"geo_type": "landmark"
			}
		},
		{ "type": "Feature",
		"geometry": {"type": "Point", "coordinates": [-3.88972, 48.4135]},
		"properties": {
			"title": "Attentat_de_Roc'h_Trédudon",
			"content_type": "Bon_article",
			"geo_type": "landmark"
			}
		},
		{ "type": "Feature",
		"geometry": {"type": "Point", "coordinates": [-3.36505, 47.7301]},
		"properties": {
			"title": "Port_de_pêche_de_Keroman",
			"content_type": "Bon_article",
			"geo_type": "landmark"
			}
		},
		{ "type": "Feature",
		"geometry": {"type": "Point", "coordinates": [-74.0099, 40.7114]},
		"properties": {
			"title": "Chapelle_Saint-Paul",
			"content_type": "Bon_article",
			"geo_type": "landmark"
			}
		},
		{ "type": "Feature",
		"geometry": {"type": "Point", "coordinates": [-3.35403, 47.735]},
		"properties": {
			"title": "Port_de_commerce_de_Kergroise",
			"content_type": "Bon_article",
			"geo_type": "landmark"
			}
		},
		{ "type": "Feature",
		"geometry": {"type": "Point", "coordinates": [-3.35528, 47.7456]},
		"properties": {
			"title": "Hôtel_Gabriel",
			"content_type": "Bon_article",
			"geo_type": ""
			}
		},
		{ "type": "Feature",
		"geometry": {"type": "Point", "coordinates": [10.9167, 59.0833]},
		"properties": {
			"title": "Parc_national_d'Ytre_Hvaler",
			"content_type": "Bon_article",
			"geo_type": "landmark"
			}
		},
		{ "type": "Feature",
		"geometry": {"type": "Point", "coordinates": [6.03461, 47.2231]},
		"properties": {
			"title": "Lunettes_de_Trois-Châtels_et_de_Tousey",
			"content_type": "Bon_article",
			"geo_type": "landmark"
			}
		},
		{ "type": "Feature",
		"geometry": {"type": "Point", "coordinates": [-6.33034, 53.2519]},
		"properties": {
			"title": "Montpelier_Hill",
			"content_type": "Bon_article",
			"geo_type": "mountain"
			}
		},
		{ "type": "Feature",
		"geometry": {"type": "Point", "coordinates": [-122.785, 42.355]},
		"properties": {
			"title": "Pic_Roxy_Ann",
			"content_type": "Bon_article",
			"geo_type": "mountain"
			}
		},
		{ "type": "Feature",
		"geometry": {"type": "Point", "coordinates": [6.63697, 47.6869]},
		"properties": {
			"title": "Puits_du_Magny",
			"content_type": "Bon_article",
			"geo_type": "landmark"
			}
		},
		{ "type": "Feature",
		"geometry": {"type": "Point", "coordinates": [6.63015, 47.6934]},
		"properties": {
			"title": "Puits_du_Chanois",
			"content_type": "Bon_article",
			"geo_type": "landmark"
			}
		},
		{ "type": "Feature",
		"geometry": {"type": "Point", "coordinates": [6.02194, 47.2431]},
		"properties": {
			"title": "Bataille_de_Besançon_(1575)",
			"content_type": "Bon_article",
			"geo_type": "landmark"
			}
		},
		{ "type": "Feature",
		"geometry": {"type": "Point", "coordinates": [-97.1362, 49.8193]},
		"properties": {
			"title": "Maison_Riel",
			"content_type": "Bon_article",
			"geo_type": "landmark"
			}
		},
		{ "type": "Feature",
		"geometry": {"type": "Point", "coordinates": [2.79142, 42.4631]},
		"properties": {
			"title": "Dolmen_de_la_Siureda",
			"content_type": "Bon_article",
			"geo_type": "landmark"
			}
		},
		{ "type": "Feature",
		"geometry": {"type": "Point", "coordinates": [6.64478, 47.7023]},
		"properties": {
			"title": "Puits_Saint-Charles",
			"content_type": "Bon_article",
			"geo_type": ""
			}
		},
		{ "type": "Feature",
		"geometry": {"type": "Point", "coordinates": [6.64267, 47.6986]},
		"properties": {
			"title": "Puits_Saint-Joseph",
			"content_type": "Bon_article",
			"geo_type": ""
			}
		},
		{ "type": "Feature",
		"geometry": {"type": "Point", "coordinates": [6.65355, 47.707]},
		"properties": {
			"title": "Puits_Saint-Louis",
			"content_type": "Bon_article",
			"geo_type": "landmark"
			}
		},
		{ "type": "Feature",
		"geometry": {"type": "Point", "coordinates": [-3.20155, 47.6323]},
		"properties": {
			"title": "TK_Bremen",
			"content_type": "Bon_article",
			"geo_type": "landmark"
			}
		},
		{ "type": "Feature",
		"geometry": {"type": "Point", "coordinates": [4.63333, 49.9333]},
		"properties": {
			"title": "Parc_naturel_régional_des_Ardennes",
			"content_type": "Bon_article",
			"geo_type": "landmark"
			}
		},
		{ "type": "Feature",
		"geometry": {"type": "Point", "coordinates": [-3.36926, 47.7257]},
		"properties": {
			"title": "SMS_Regensburg",
			"content_type": "Bon_article",
			"geo_type": "landmark"
			}
		},
		{ "type": "Feature",
		"geometry": {"type": "Point", "coordinates": [-71.0597, 42.3583]},
		"properties": {
			"title": "Révolte_de_Boston",
			"content_type": "Bon_article",
			"geo_type": "landmark"
			}
		},
		{ "type": "Feature",
		"geometry": {"type": "Point", "coordinates": [1.33194, 47.5877]},
		"properties": {
			"title": "Hôtel_d'Alluye",
			"content_type": "Bon_article",
			"geo_type": "landmark"
			}
		},
		{ "type": "Feature",
		"geometry": {"type": "Point", "coordinates": [31.2891, 39.0204]},
		"properties": {
			"title": "Sac_d'Amorium",
			"content_type": "Bon_article",
			"geo_type": "landmark"
			}
		},
		{ "type": "Feature",
		"geometry": {"type": "Point", "coordinates": [-74.0133, 40.7115]},
		"properties": {
			"title": "Construction_du_World_Trade_Center",
			"content_type": "Bon_article",
			"geo_type": ""
			}
		},
		{ "type": "Feature",
		"geometry": {"type": "Point", "coordinates": [17.7974, 46.0507]},
		"properties": {
			"title": "Siège_de_Szigetvár",
			"content_type": "Bon_article",
			"geo_type": "landmark"
			}
		},
		{ "type": "Feature",
		"geometry": {"type": "Point", "coordinates": [4.985, 45.826]},
		"properties": {
			"title": "Sport_à_Saint-Maurice-de-Beynost",
			"content_type": "Bon_article",
			"geo_type": ""
			}
		},
		{ "type": "Feature",
		"geometry": {"type": "Point", "coordinates": [4.98279, 45.8254]},
		"properties": {
			"title": "Usine_textile_et_chimique_de_Saint-Maurice-de-Beynost",
			"content_type": "Bon_article",
			"geo_type": ""
			}
		},
		{ "type": "Feature",
		"geometry": {"type": "Point", "coordinates": [-97.1101, 49.8901]},
		"properties": {
			"title": "Maison_Gabrielle-Roy",
			"content_type": "Bon_article",
			"geo_type": "landmark"
			}
		},
		{ "type": "Feature",
		"geometry": {"type": "Point", "coordinates": [2.10838, 48.8167]},
		"properties": {
			"title": "Belvédère_(Petit_Trianon)",
			"content_type": "Bon_article",
			"geo_type": ""
			}
		},
		{ "type": "Feature",
		"geometry": {"type": "Point", "coordinates": [-72.5749, 46.3525]},
		"properties": {
			"title": "Mausolée_des_Évêques-de-Trois-Rivières",
			"content_type": "Bon_article",
			"geo_type": ""
			}
		},
		{ "type": "Feature",
		"geometry": {"type": "Point", "coordinates": [-72.595, 2.1639]},
		"properties": {
			"title": "Opération_Caméléon",
			"content_type": "Bon_article",
			"geo_type": ""
			}
		},
		{ "type": "Feature",
		"geometry": {"type": "Point", "coordinates": [73.0084, 32.6479]},
		"properties": {
			"title": "Mine_de_sel_de_Khewra",
			"content_type": "Bon_article",
			"geo_type": "landmark"
			}
		},
		{ "type": "Feature",
		"geometry": {"type": "Point", "coordinates": [6.62974, 47.7029]},
		"properties": {
			"title": "Chevalement_du_puits_Sainte-Marie",
			"content_type": "Bon_article",
			"geo_type": ""
			}
		},
		{ "type": "Feature",
		"geometry": {"type": "Point", "coordinates": [-73.5821, 45.5059]},
		"properties": {
			"title": "Maison_Ravenscrag",
			"content_type": "Bon_article",
			"geo_type": "landmark"
			}
		},
		{ "type": "Feature",
		"geometry": {"type": "Point", "coordinates": [-9.25749, 39.2825]},
		"properties": {
			"title": "Moledo_(Lourinhã)",
			"content_type": "Bon_article",
			"geo_type": "city"
			}
		},
		{ "type": "Feature",
		"geometry": {"type": "Point", "coordinates": [-96.9283, 49.3197]},
		"properties": {
			"title": "Parc_provincial_de_Saint-Malo",
			"content_type": "Bon_article",
			"geo_type": "landmark"
			}
		},
		{ "type": "Feature",
		"geometry": {"type": "Point", "coordinates": [6.65537, 47.7097]},
		"properties": {
			"title": "Hameau_de_la_Houillère",
			"content_type": "Bon_article",
			"geo_type": "city"
			}
		},
		{ "type": "Feature",
		"geometry": {"type": "Point", "coordinates": [93.783, 21.4]},
		"properties": {
			"title": "Sittelle_du_Victoria",
			"content_type": "Bon_article",
			"geo_type": ""
			}
		},
		{ "type": "Feature",
		"geometry": {"type": "Point", "coordinates": [0.714528, 45.1869]},
		"properties": {
			"title": "Place_Plumancy",
			"content_type": "Bon_article",
			"geo_type": "landmark"
			}
		},
		{ "type": "Feature",
		"geometry": {"type": "Point", "coordinates": [6.61997, 47.7047]},
		"properties": {
			"title": "Colline_de_Bourlémont",
			"content_type": "Bon_article",
			"geo_type": "mountain"
			}
		},
		{ "type": "Feature",
		"geometry": {"type": "Point", "coordinates": [0.724133, 45.1866]},
		"properties": {
			"title": "Allées_de_Tourny_(Périgueux)",
			"content_type": "Bon_article",
			"geo_type": "landmark"
			}
		},
		{ "type": "Feature",
		"geometry": {"type": "Point", "coordinates": [10.3309, 36.858]},
		"properties": {
			"title": "Inscription_édilitaire_de_Carthage",
			"content_type": "Bon_article",
			"geo_type": "landmark"
			}
		},
		{ "type": "Feature",
		"geometry": {"type": "Point", "coordinates": [15.265, 37.0544]},
		"properties": {
			"title": "Opération_Ladbroke",
			"content_type": "Bon_article",
			"geo_type": "landmark"
			}
		},
		{ "type": "Feature",
		"geometry": {"type": "Point", "coordinates": [5.34953, 43.2844]},
		"properties": {
			"title": "Zinédine_Zidane",
			"content_type": "Bon_article",
			"geo_type": ""
			}
		},
		{ "type": "Feature",
		"geometry": {"type": "Point", "coordinates": [11.0485, 49.4543]},
		"properties": {
			"title": "Procès_de_Nuremberg",
			"content_type": "Bon_article",
			"geo_type": "event"
			}
		},
		{ "type": "Feature",
		"geometry": {"type": "Point", "coordinates": [-177.35, 28.2]},
		"properties": {
			"title": "Bataille_de_Midway",
			"content_type": "Bon_article",
			"geo_type": "landmark"
			}
		},
		{ "type": "Feature",
		"geometry": {"type": "Point", "coordinates": [-1.62, 43.3467]},
		"properties": {
			"title": "Ascain",
			"content_type": "Bon_article",
			"geo_type": "city"
			}
		},
		{ "type": "Feature",
		"geometry": {"type": "Point", "coordinates": [0.968056, 47.1822]},
		"properties": {
			"title": "Chambourg-sur-Indre",
			"content_type": "Bon_article",
			"geo_type": "city"
			}
		},
		{ "type": "Feature",
		"geometry": {"type": "Point", "coordinates": [-122.18, 46.2]},
		"properties": {
			"title": "Mont_Saint_Helens",
			"content_type": "Bon_article",
			"geo_type": "mountain"
			}
		},
		{ "type": "Feature",
		"geometry": {"type": "Point", "coordinates": [5.0735, 45.8772]},
		"properties": {
			"title": "Martin_Dumollard",
			"content_type": "Bon_article",
			"geo_type": ""
			}
		},
		{ "type": "Feature",
		"geometry": {"type": "Point", "coordinates": [-7.48746, 56.9521]},
		"properties": {
			"title": "Château_de_Kisimul",
			"content_type": "Bon_article",
			"geo_type": "landmark"
			}
		},
		{ "type": "Feature",
		"geometry": {"type": "Point", "coordinates": [134.8, 12.0333]},
		"properties": {
			"title": "USS_Indianapolis_(CA-35)",
			"content_type": "Bon_article",
			"geo_type": "landmark"
			}
		},
		{ "type": "Feature",
		"geometry": {"type": "Point", "coordinates": [-1.68003, 48.1114]},
		"properties": {
			"title": "Attentat_du_7_août_1932_à_Rennes",
			"content_type": "Bon_article",
			"geo_type": "landmark"
			}
		},
		{ "type": "Feature",
		"geometry": {"type": "Point", "coordinates": [-3.30205, 47.7648]},
		"properties": {
			"title": "Pont_du_Bonhomme",
			"content_type": "Bon_article",
			"geo_type": "landmark"
			}
		},
		{ "type": "Feature",
		"geometry": {"type": "Point", "coordinates": [-1.55, 43.483]},
		"properties": {
			"title": "Biarritz",
			"content_type": "Bon_article",
			"geo_type": ""
			}
		},
		{ "type": "Feature",
		"geometry": {"type": "Point", "coordinates": [0.56028, 48.3767]},
		"properties": {
			"title": "Église_Saint-Sauveur_de_Bellême",
			"content_type": "Bon_article",
			"geo_type": ""
			}
		},
		{ "type": "Feature",
		"geometry": {"type": "Point", "coordinates": [0.9175, 47.2333]},
		"properties": {
			"title": "Reignac-sur-Indre",
			"content_type": "Bon_article",
			"geo_type": "city"
			}
		},
		{ "type": "Feature",
		"geometry": {"type": "Point", "coordinates": [6.65707, 47.694]},
		"properties": {
			"title": "Puits_Sainte-Pauline",
			"content_type": "Bon_article",
			"geo_type": ""
			}
		},
		{ "type": "Feature",
		"geometry": {"type": "Point", "coordinates": [-1.55, 43.4328]},
		"properties": {
			"title": "Arbonne",
			"content_type": "Bon_article",
			"geo_type": "city"
			}
		},
		{ "type": "Feature",
		"geometry": {"type": "Point", "coordinates": [-68.8683, 47.7094]},
		"properties": {
			"title": "Montagne_du_Fourneau",
			"content_type": "Bon_article",
			"geo_type": "mountain"
			}
		},
		{ "type": "Feature",
		"geometry": {"type": "Point", "coordinates": [4.42583, 50.4508]},
		"properties": {
			"title": "Église_Saint-Sulpice_de_Jumet",
			"content_type": "Bon_article",
			"geo_type": "landmark"
			}
		},
		{ "type": "Feature",
		"geometry": {"type": "Point", "coordinates": [6.65274, 47.7034]},
		"properties": {
			"title": "Réseau_ferré_des_houillères_de_Ronchamp",
			"content_type": "Bon_article",
			"geo_type": "railwaystation"
			}
		},
		{ "type": "Feature",
		"geometry": {"type": "Point", "coordinates": [19.1315, 60.301]},
		"properties": {
			"title": "Märket",
			"content_type": "Bon_article",
			"geo_type": "isle"
			}
		},
		{ "type": "Feature",
		"geometry": {"type": "Point", "coordinates": [0.931389, 47.2603]},
		"properties": {
			"title": "Cigogné",
			"content_type": "Bon_article",
			"geo_type": "city"
			}
		},
		{ "type": "Feature",
		"geometry": {"type": "Point", "coordinates": [-1.51972, 43.4375]},
		"properties": {
			"title": "Arcangues",
			"content_type": "Bon_article",
			"geo_type": "city"
			}
		},
		{ "type": "Feature",
		"geometry": {"type": "Point", "coordinates": [2.25836, 48.8333]},
		"properties": {
			"title": "I-Télé",
			"content_type": "Bon_article",
			"geo_type": ""
			}
		},
		{ "type": "Feature",
		"geometry": {"type": "Point", "coordinates": [0.991944, 47.2653]},
		"properties": {
			"title": "Sublaines",
			"content_type": "Bon_article",
			"geo_type": "city"
			}
		},
		{ "type": "Feature",
		"geometry": {"type": "Point", "coordinates": [-73.9799, 44.2795]},
		"properties": {
			"title": "Jeux_olympiques_d'hiver_de_1980",
			"content_type": "Bon_article",
			"geo_type": "city"
			}
		},
		{ "type": "Feature",
		"geometry": {"type": "Point", "coordinates": [0.721303, 45.1843]},
		"properties": {
			"title": "Place_du_Coderc",
			"content_type": "Bon_article",
			"geo_type": "landmark"
			}
		},
		{ "type": "Feature",
		"geometry": {"type": "Point", "coordinates": [5.98972, 45.6894]},
		"properties": {
			"title": "Mont_Revard",
			"content_type": "Bon_article",
			"geo_type": "mountain"
			}
		},
		{ "type": "Feature",
		"geometry": {"type": "Point", "coordinates": [23.9783, 38.1181]},
		"properties": {
			"title": "Bataille_de_Marathon",
			"content_type": "Bon_article",
			"geo_type": "landmark"
			}
		},
		{ "type": "Feature",
		"geometry": {"type": "Point", "coordinates": [1.16225, 41.0886]},
		"properties": {
			"title": "Shambhala_(PortAventura)",
			"content_type": "Bon_article",
			"geo_type": "landmark"
			}
		},
		{ "type": "Feature",
		"geometry": {"type": "Point", "coordinates": [9.983, 53.583]},
		"properties": {
			"title": "Siège_de_Hambourg",
			"content_type": "Bon_article",
			"geo_type": "landmark"
			}
		},
		{ "type": "Feature",
		"geometry": {"type": "Point", "coordinates": [-1.45528, 43.4003]},
		"properties": {
			"title": "Ustaritz",
			"content_type": "Bon_article",
			"geo_type": "city"
			}
		},
		{ "type": "Feature",
		"geometry": {"type": "Point", "coordinates": [2.2721, 48.8551]},
		"properties": {
			"title": "Lycée_Molière_(Paris)",
			"content_type": "Bon_article",
			"geo_type": "edu"
			}
		},
		{ "type": "Feature",
		"geometry": {"type": "Point", "coordinates": [-103.46, 43.8789]},
		"properties": {
			"title": "Mont_Rushmore",
			"content_type": "Bon_article",
			"geo_type": "landmark"
			}
		},
		{ "type": "Feature",
		"geometry": {"type": "Point", "coordinates": [1.02444, 47.2042]},
		"properties": {
			"title": "Saint-Quentin-sur-Indrois",
			"content_type": "Bon_article",
			"geo_type": "city"
			}
		},
		{ "type": "Feature",
		"geometry": {"type": "Point", "coordinates": [33.0581, -0.99611]},
		"properties": {
			"title": "Lac_Victoria",
			"content_type": "Bon_article",
			"geo_type": "waterbody"
			}
		},
		{ "type": "Feature",
		"geometry": {"type": "Point", "coordinates": [-1.56946, 47.1906]},
		"properties": {
			"title": "Rezé",
			"content_type": "Bon_article",
			"geo_type": "city"
			}
		},
		{ "type": "Feature",
		"geometry": {"type": "Point", "coordinates": [2.3333, 49.0]},
		"properties": {
			"title": "Montmorency_(Val-d'Oise)",
			"content_type": "Bon_article",
			"geo_type": "city"
			}
		},
		{ "type": "Feature",
		"geometry": {"type": "Point", "coordinates": [2.25634, 42.5338]},
		"properties": {
			"title": "Monastère_Saint-André_d'Eixalada",
			"content_type": "Bon_article",
			"geo_type": "landmark"
			}
		},
		{ "type": "Feature",
		"geometry": {"type": "Point", "coordinates": [13.8497, 46.3831]},
		"properties": {
			"title": "Parc_national_du_Triglav",
			"content_type": "Bon_article",
			"geo_type": "landmark"
			}
		},
		{ "type": "Feature",
		"geometry": {"type": "Point", "coordinates": [-61.4681, 47.7928]},
		"properties": {
			"title": "Île_Brion",
			"content_type": "Bon_article",
			"geo_type": "isle"
			}
		},
		{ "type": "Feature",
		"geometry": {"type": "Point", "coordinates": [0.946111, 47.2097]},
		"properties": {
			"title": "Azay-sur-Indre",
			"content_type": "Bon_article",
			"geo_type": "city"
			}
		},
		{ "type": "Feature",
		"geometry": {"type": "Point", "coordinates": [5.65829, 46.2594]},
		"properties": {
			"title": "Défilé_du_11_novembre_1943_à_Oyonnax",
			"content_type": "Bon_article",
			"geo_type": "event"
			}
		},
		{ "type": "Feature",
		"geometry": {"type": "Point", "coordinates": [-90.1847, 38.6245]},
		"properties": {
			"title": "Gateway_Arch",
			"content_type": "Bon_article",
			"geo_type": ""
			}
		},
		{ "type": "Feature",
		"geometry": {"type": "Point", "coordinates": [69.0207, -48.678]},
		"properties": {
			"title": "Port-Christmas",
			"content_type": "Bon_article",
			"geo_type": "landmark"
			}
		},
		{ "type": "Feature",
		"geometry": {"type": "Point", "coordinates": [-117.517, 51.267]},